id,name,type,typecode,lng,lat,pname,cityname,adname,address,biz_status,city,group,pair_id,search_type,search_typecode
B0FFH2MSLV,影私拾光私人影院(吉祥广场店),体育休闲服务;影剧院;电影院|餐饮服务;咖啡厅;咖啡厅,080601|050500,117.971324,36.652849,山东省,淄博市,淄川区,淄城路与北苑街交叉口东南320米(吉祥广场红糖果南临),,淄博,treat,1,餐饮服务,050000
B0FFG45JKJ,清真双盛馆,餐饮服务;中餐厅;清真菜馆,050121,118.196175,36.805724,山东省,淄博市,临淄区,金岭金烯路84号,,淄博,treat,1,餐饮服务,050000
B02150RREG,圣得利蛋糕鲜花店(巴黎假日·步行街店),餐饮服务;糕饼店;糕饼店|购物服务;购物相关场所;购物相关场所,050800|060000,117.852685,36.798279,山东省,淄博市,周村区,东街320号,,淄博,treat,1,餐饮服务,050000
B0FFG70RHM,南定湘菜馆,餐饮服务;中餐厅;湖南菜(湘菜),050108,118.044766,36.743012,山东省,淄博市,张店区,南定镇张南路225号,,淄博,treat,1,餐饮服务,050000
B0FFGO77SK,唐停烧饼,餐饮服务;中餐厅;中餐厅,050100,118.163631,36.193387,山东省,淄博市,沂源县,历山路6-9号,,淄博,treat,1,餐饮服务,050000
B0FFJWFW0O,岁月烧烤,餐饮服务;中餐厅;中餐厅,050100,117.867159,36.816672,山东省,淄博市,周村区,正阳路4439-3,,淄博,treat,1,餐饮服务,050000
B0FFJRREKQ,桓台县跷脚烧烤店,餐饮服务;外国餐厅;外国餐厅,050200,118.067611,36.917519,山东省,淄博市,桓台县,果里大道336号商业街C区C1-012号商铺,,淄博,treat,1,餐饮服务,050000
B0FFFVP36R,小维度奶茶店,餐饮服务;冷饮店;冷饮店,050700,117.852519,36.800056,山东省,淄博市,周村区,"丝绸路街道丝绸路2号,步行街中段康城丽都一楼",,淄博,treat,1,餐饮服务,050000
B021504689,淄博饭店,住宿服务;宾馆酒店;四星级宾馆|餐饮服务;餐饮相关场所;餐饮相关,100103|050000,118.060022,36.805832,山东省,淄博市,张店区,金晶大道177号,,淄博,treat,1,餐饮服务,050000
B0FFG37A35,兄弟酸菜鱼(翡翠园总店),餐饮服务;中餐厅;中餐厅,050100,117.875155,36.513158,山东省,淄博市,博山区,夏家庄街道珑山路63号西北(翡翠园南苑西50米),,淄博,treat,1,餐饮服务,050000
B0FFJZYIAD,杨老六巴香鱼,餐饮服务;餐饮相关场所;餐饮相关,050000,117.864137,36.498024,山东省,淄博市,博山区,北关街26号,,淄博,treat,1,餐饮服务,050000
B0FFJGLIBW,老博山私房菜,餐饮服务;中餐厅;中餐厅,050100,118.070058,36.799784,山东省,淄博市,张店区,东二路22号百盛商城商场东街,,淄博,treat,1,餐饮服务,050000
B0FFJC6TD5,面对面喜事汇,住宿服务;宾馆酒店;宾馆酒店|餐饮服务;中餐厅;中餐厅,100100|050100,117.977589,36.640925,山东省,淄博市,淄川区,般阳路135号,,淄博,treat,1,餐饮服务,050000
B0FFI825ZO,湖南正宗湘菜馆(淄河大道店),餐饮服务;中餐厅;中餐厅,050100,117.989507,36.743089,山东省,淄博市,淄川区,淄河大道与西外环路交叉口西南460米,,淄博,treat,1,餐饮服务,050000
B0FFI7OTH6,西寨煎饼-猪头肉(西寨小区店),餐饮服务;中餐厅;中餐厅,050100,117.855764,36.499442,山东省,淄博市,博山区,西寨南三丁字巷路口,,淄博,treat,1,餐饮服务,050000
B0FFI1P7JE,翟家全羊馆,餐饮服务;餐饮相关场所;餐饮相关,050000,118.156581,36.553094,山东省,淄博市,淄川区,太河镇桐古渡槽南100米,,淄博,treat,1,餐饮服务,050000
B0FFFZY50W,清正源饭店,餐饮服务;中餐厅;清真菜馆,050121,118.210065,36.799794,山东省,淄博市,临淄区,金岭镇金岭南街山东清源集团医院南东门超市旁,,淄博,treat,1,餐饮服务,050000
B0FFFXL5F3,一绝春饼楼,餐饮服务;中餐厅;中餐厅,050100,118.313274,36.808168,山东省,淄博市,临淄区,齐城路118号,,淄博,treat,1,餐饮服务,050000
B0FFFP5X1O,步步高鸽子府,餐饮服务;中餐厅;中餐厅,050100,118.314622,36.806359,山东省,淄博市,临淄区,牛山路352号甲2号,,淄博,treat,1,餐饮服务,050000
B021500179,泉龙大酒店,住宿服务;宾馆酒店;宾馆酒店|餐饮服务;中餐厅;中餐厅,100100|050100,117.977532,36.651991,山东省,淄博市,淄川区,淄城东路113号,,淄博,treat,1,餐饮服务,050000
B02150RRGW,露露韩国风味餐厅,餐饮服务;外国餐厅;韩国料理,050203,117.858807,36.80243,山东省,淄博市,周村区,东民路2号,,淄博,treat,1,餐饮服务,050000
B0FFJPPX78,博山区好久不见中餐馆(白虎山东路店),餐饮服务;餐饮相关场所;餐饮相关,050000,117.86258,36.508943,山东省,淄博市,博山区,城西街道白虎山东路9号铁路工区办公楼,,淄博,treat,1,餐饮服务,050000
B0FFJBNDGP,福记小馆(朝阳花苑凯旋城店),餐饮服务;中餐厅;中餐厅,050100,117.871797,36.811256,山东省,淄博市,周村区,朝阳花苑凯旋城南门东50米,,淄博,treat,1,餐饮服务,050000
B0FFHHPHZI,英豪东方明珠大酒店,餐饮服务;中餐厅;中餐厅,050100,118.076972,36.816286,山东省,淄博市,张店区,华光路与东三路交叉口东南10米,,淄博,treat,1,餐饮服务,050000
B02150RY7H,巩本明鱼屋子,餐饮服务;中餐厅;中餐厅,050100,118.083466,37.056576,山东省,淄博市,桓台县,起凤镇起马路3300号,,淄博,treat,1,餐饮服务,050000
B0FFGKX20O,齐悦国际大饭店,住宿服务;宾馆酒店;四星级宾馆|餐饮服务;餐饮相关场所;餐饮相关,100103|050000,117.85344,36.795005,山东省,淄博市,周村区,站北路39号一四八医院斜对面,,淄博,treat,1,餐饮服务,050000
B0FFJO63TX,周村宾馆·老城味道(古商城店),餐饮服务;中餐厅;中餐厅,050100,117.84268,36.79997,山东省,淄博市,周村区,新建中路24号(周村宾馆院内),,淄博,treat,1,餐饮服务,050000
B0FFIZAOH3,钱记小院,餐饮服务;中餐厅;中餐厅,050100,117.854785,36.48077,山东省,淄博市,博山区,泉水路22附近,,淄博,treat,1,餐饮服务,050000
B0FFI6IDEQ,太公老刘带皮五花肉,餐饮服务;中餐厅;火锅店,050117,118.322573,36.824116,山东省,淄博市,临淄区,遄台路130号,,淄博,treat,1,餐饮服务,050000
B0FFG1B22G,老博山李铁食品(北西六路),购物服务;专卖店;土特产专卖店|餐饮服务;餐饮相关场所;餐饮相关,061214|050000,118.032092,36.816015,山东省,淄博市,张店区,北西六路51号甲六李铁食品,,淄博,treat,1,餐饮服务,050000
B02150R501,齐都宾馆,餐饮服务;中餐厅;中餐厅|住宿服务;宾馆酒店;宾馆酒店|住宿服务;旅馆招待所;旅馆招待所,050100|100100|100200,118.349605,36.852132,山东省,淄博市,临淄区,齐都路88号,,淄博,treat,1,餐饮服务,050000
B0FFFZK28Z,恒星快餐,公司企业;公司;公司|餐饮服务;中餐厅;中餐厅,170200|050100,117.845934,36.824955,山东省,淄博市,周村区,恒星路98号,,淄博,treat,1,餐饮服务,050000
B0FFJETO4N,小咚家自助水饺(羿景嘉园店),餐饮服务;中餐厅;中餐厅|科教文化服务;科教文化场所;科教文化场所,050100|140000,118.091661,36.950788,山东省,淄博市,桓台县,渔洋街2700号同仁堂2层,,淄博,treat,1,餐饮服务,050000
B0FFIXN9WV,造作家咖啡,餐饮服务;咖啡厅;咖啡厅|生活服务;生活服务场所;生活服务场所,050500|070000,118.019147,36.839346,山东省,淄博市,张店区,远景街路西边最南边第一家(院子木门进),,淄博,treat,1,餐饮服务,050000
B0FFI0ZUM7,又一村上善坊大酒店,餐饮服务;中餐厅;综合酒楼,050101,118.064123,36.81423,山东省,淄博市,张店区,中心路166号,,淄博,treat,1,餐饮服务,050000
B0FFH7Q9NJ,新天齐美食大广场,餐饮服务;中餐厅;中餐厅,050100,118.340308,36.804035,山东省,淄博市,临淄区,S102与S233交汇处东南,,淄博,treat,1,餐饮服务,050000
B0FFH43FJX,遄台老店骏阳凉皮,餐饮服务;中餐厅;中餐厅,050100,118.318082,36.817242,山东省,淄博市,临淄区,遄台北生活区31号楼,,淄博,treat,1,餐饮服务,050000
B0FFGNLCO6,金岭清真马勇烧烤,餐饮服务;中餐厅;特色/地方风味餐厅,050118,118.209597,36.799672,山东省,淄博市,临淄区,金岭镇金岭四村,,淄博,treat,1,餐饮服务,050000
B0FFFZY20W,沂源历山独一家羊汤,餐饮服务;中餐厅;中餐厅,050100,118.148153,36.205919,山东省,淄博市,沂源县,东鱼台村历山公园正门,,淄博,treat,1,餐饮服务,050000
B0FFFWA4YQ,杭州特色小笼包(金誉花园店),餐饮服务;餐饮相关场所;餐饮相关,050000,118.005544,36.804393,山东省,淄博市,张店区,张周路19-7号,,淄博,treat,1,餐饮服务,050000
B0FFF4YSMR,老车家大串烤肉(颐泽花园店),餐饮服务;中餐厅;特色/地方风味餐厅,050118,117.971224,36.628883,山东省,淄博市,淄川区,淄成东路660号,,淄博,treat,1,餐饮服务,050000
B02150SCBL,六禾烧烤(尹家湾),餐饮服务;中餐厅;特色/地方风味餐厅,050118,117.844345,36.804193,山东省,淄博市,周村区,北门里生活区10号楼1单元,,淄博,treat,1,餐饮服务,050000
B02150RZEG,海梦圆酒楼,餐饮服务;中餐厅;综合酒楼,050101,117.845917,36.496655,山东省,淄博市,博山区,中心路115号(近万顺御花园),,淄博,treat,1,餐饮服务,050000
B02150RYYM,四季屋快餐(商业街店),餐饮服务;中餐厅;中餐厅,050100,117.963677,36.646516,山东省,淄博市,淄川区,城里大街20号甲,,淄博,treat,1,餐饮服务,050000
B02150QGIS,圣禾馄炖(大顺路店),餐饮服务;中餐厅;中餐厅,050100,118.297034,36.820673,山东省,淄博市,临淄区,大顺路83-1号圣禾馄饨,,淄博,treat,1,餐饮服务,050000
B021504MLA,重庆饭店(华光路店),餐饮服务;中餐厅;四川菜(川菜),050102,118.058445,36.819347,山东省,淄博市,张店区,华光路53号甲1号,,淄博,treat,1,餐饮服务,050000
B021504L1G,金肥牛火锅(周村店),餐饮服务;中餐厅;火锅店,050117,117.867133,36.804521,山东省,淄博市,周村区,正阳路3147号(区政府西门斜对面),,淄博,treat,1,餐饮服务,050000
B021504F28,近江南御翅府,餐饮服务;糕饼店;糕饼店|餐饮服务;中餐厅;中餐厅,050800|050100,118.281748,36.810004,山东省,淄博市,临淄区,牛山路17号,,淄博,treat,1,餐饮服务,050000
B021504AD3,江南濠景生态美食园,餐饮服务;中餐厅;中餐厅,050100,118.009609,36.805242,山东省,淄博市,张店区,新村西路264号,,淄博,treat,1,餐饮服务,050000
B0FFIAA38T,吉祥福第蚂蚱鸡,餐饮服务;中餐厅;中餐厅|住宿服务;宾馆酒店;宾馆酒店,050100|100100,118.016031,36.848831,山东省,淄博市,张店区,房镇镇大张村4号沿街公建1-3层,,淄博,treat,1,餐饮服务,050000
B0FFI76RDS,兴隆灌汤蒸包(东关店),餐饮服务;中餐厅;中餐厅,050100,117.97786,36.647169,山东省,淄博市,淄川区,松龄东路166号星辰供水对过,,淄博,treat,1,餐饮服务,050000
B0FFGO14NA,百顺源炖鸡(紫荆园店),餐饮服务;中餐厅;中餐厅,050100,118.05226,36.830499,山东省,淄博市,张店区,樱红路9号,,淄博,treat,1,餐饮服务,050000
B0FFGNIK6K,小乔豆腐(富瑞特城市广场店),餐饮服务;快餐厅;快餐厅,050300,117.851204,36.807558,山东省,淄博市,周村区,福瑞特F座二楼电梯口,,淄博,treat,1,餐饮服务,050000
B0FFGMD3SE,鸿运蛤蜊鸡(周村总店),餐饮服务;中餐厅;中餐厅,050100,117.852972,36.810731,山东省,淄博市,周村区,机场路768号,,淄博,treat,1,餐饮服务,050000
B0FFGLFDNI,长龙灌汤包,餐饮服务;中餐厅;中餐厅,050100,117.852565,36.808305,山东省,淄博市,周村区,东门路青年路31号,,淄博,treat,1,餐饮服务,050000
B0FFFW8QUV,博味居正宗博山菜,餐饮服务;中餐厅;山东菜(鲁菜),050104,118.01584,36.809918,山东省,淄博市,张店区,共青团西路250号,,淄博,treat,1,餐饮服务,050000
B0FFFSPNP3,老字号段家煮锅(青年路店),餐饮服务;中餐厅;中餐厅,050100,117.846961,36.80669,山东省,淄博市,周村区,青年路18号(环卫局大门西边),,淄博,treat,1,餐饮服务,050000
B0FFFSL8HV,大眼妹上海生煎(理工大学店),餐饮服务;中餐厅;中餐厅,050100,118.02043,36.812692,山东省,淄博市,张店区,马尚镇瑞安路45号,,淄博,treat,1,餐饮服务,050000
B0FFFOVBLQ,金三角水饺店(大顺路),餐饮服务;中餐厅;特色/地方风味餐厅,050118,118.297367,36.822108,山东省,淄博市,临淄区,雪宫街道齐园路85号金三角水产公司,,淄博,treat,1,餐饮服务,050000
B02150QXQ3,延边高丽村养生汤馆(名仕嘉园店),餐饮服务;中餐厅;中餐厅,050100,118.297755,36.819583,山东省,淄博市,临淄区,齐园路46-8号(东泰广场东门对面),,淄博,treat,1,餐饮服务,050000
B02150037F,新印马酒店,餐饮服务;中餐厅;综合酒楼,050101,118.315894,36.820577,山东省,淄博市,临淄区,稷下路163号(卫生防疫站北),,淄博,treat,1,餐饮服务,050000
B021503Y48,顺河羊肉馆,餐饮服务;中餐厅;中餐厅,050100,118.226861,36.20498,山东省,淄博市,沂源县,南悦路与人民路交叉口东140米,,淄博,treat,1,餐饮服务,050000
B0FFJCV0UD,一点利烧烤(泰美路店),餐饮服务;快餐厅;快餐厅,050300,118.053632,36.851125,山东省,淄博市,张店区,泰美路与铭波路交叉口北400米路东,,淄博,treat,1,餐饮服务,050000
B0FFJ18M5D,老潍县朝天锅(华光路店),餐饮服务;中餐厅;山东菜(鲁菜),050104,118.075226,36.817059,山东省,淄博市,张店区,华光路10甲1-4号,,淄博,treat,1,餐饮服务,050000
B0FFIPJ9J5,公社炒鸡老菜馆(八大局店),餐饮服务;中餐厅;中餐厅,050100,118.075206,36.808527,山东省,淄博市,张店区,人民东路与东三路交叉口向东200米路南,,淄博,treat,1,餐饮服务,050000
B0FFIPIRI9,铁锅砖家正宗东北铁锅炖(名士豪庭店),餐饮服务;中餐厅;中餐厅,050100,118.053772,36.85251,山东省,淄博市,张店区,泰美路北路名士豪庭西门沿街商铺28号甲4号,,淄博,treat,1,餐饮服务,050000
B0FFI877VN,悦味坊酒店,餐饮服务;中餐厅;中餐厅,050100,118.0079,36.832232,山东省,淄博市,张店区,龙凤苑龙凤西巷物业广场西侧18号,,淄博,treat,1,餐饮服务,050000
B0FFHUNK1F,肯德基(淄川店),餐饮服务;快餐厅;肯德基,050301,117.959609,36.647187,山东省,淄博市,淄川区,淄城路586号新星商厦1层,,淄博,treat,1,餐饮服务,050000
B0FFHR4TMY,老潍县菜馆(颐和花园店),餐饮服务;中餐厅;中餐厅,050100,118.066566,36.832176,山东省,淄博市,张店区,魏北路9号,,淄博,treat,1,餐饮服务,050000
B0FFH9D582,佳美果蔬商行(鑫城公寓东区店),购物服务;综合市场;果品市场|餐饮服务;餐饮相关场所;餐饮相关,060704|050000,118.018,36.801909,山东省,淄博市,张店区,张店区政府对面鑫城中心公寓C一单元,,淄博,treat,1,餐饮服务,050000
B0FFH66BZA,加一桌,餐饮服务;中餐厅;中餐厅,050100,117.851289,36.776556,山东省,淄博市,周村区,南郊镇米山路38号,,淄博,treat,1,餐饮服务,050000
B0FFH5UPLU,胶东肥蛤王小海鲜,餐饮服务;中餐厅;海鲜酒楼,050119,117.871111,36.815465,山东省,淄博市,周村区,电厂路东首(时代尚城小区对面),,淄博,treat,1,餐饮服务,050000
B0FFGG24UY,中华寿司,餐饮服务;外国餐厅;外国餐厅,050200,118.055821,36.832387,山东省,淄博市,张店区,柳泉路与魏家路交叉口西南140米,,淄博,treat,1,餐饮服务,050000
B0FFG9EOEE,福山大酒店,餐饮服务;中餐厅;中餐厅,050100,118.237566,36.732662,山东省,淄博市,临淄区,辛化路(曙光装饰材料对面),,淄博,treat,1,餐饮服务,050000
B0FFFAMUZ3,法兰度西餐厅(天齐东路店),餐饮服务;外国餐厅;西餐厅(综合风味),050201,118.331778,36.814367,山东省,淄博市,临淄区,天齐路渔码头隔壁,,淄博,treat,1,餐饮服务,050000
B02150SA4M,邱氏瓜子干果老店(城里大街店),购物服务;综合市场;果品市场|餐饮服务;餐饮相关场所;餐饮相关,060704|050000,117.964129,36.646437,山东省,淄博市,淄川区,般阳路街道城里社区城里大街26号(近张博路),,淄博,treat,1,餐饮服务,050000
B02150RU1Q,大管家酒家,餐饮服务;中餐厅;综合酒楼,050101,118.067791,36.843187,山东省,淄博市,张店区,万杰路中段南社房238号,,淄博,treat,1,餐饮服务,050000
B021503X6L,懋隆老店,餐饮服务;中餐厅;中餐厅,050100,117.872949,36.471324,山东省,淄博市,博山区,山头路165号,,淄博,treat,1,餐饮服务,050000
B0FFIQZR6F,虾时代(沂源店),餐饮服务;中餐厅;火锅店,050117,118.156895,36.185217,山东省,淄博市,沂源县,沂河西路二村狮子门沿街北50米,,淄博,treat,1,餐饮服务,050000
B0FFGZOUNH,老刺参酒楼(遄台路店),餐饮服务;中餐厅;综合酒楼,050101,118.321536,36.817749,山东省,淄博市,临淄区,遄台路88号(石鼓新村北100米),,淄博,treat,1,餐饮服务,050000
B021502Y9M,田园饼屋,餐饮服务;糕饼店;糕饼店,050800,118.044422,36.752572,山东省,淄博市,张店区,南定镇山铝西山花园路31号(铝城购物中心),,淄博,treat,1,餐饮服务,050000
B0FFJBH3KB,黄桑别院,餐饮服务;中餐厅;中餐厅,050100,118.025778,36.812851,山东省,淄博市,张店区,世纪路100号甲2号,,淄博,treat,1,餐饮服务,050000
B0FFJ89V42,湘菜馆(王舍路店),餐饮服务;餐饮相关场所;餐饮相关,050000,118.014327,36.791284,山东省,淄博市,张店区,房家小区西南1门西270米,,淄博,treat,1,餐饮服务,050000
B0FFJ47Z0O,潘南印巷,餐饮服务;餐饮相关场所;餐饮相关,050000,118.080566,36.80708,山东省,淄博市,张店区,人民东路44号土产宿舍1号楼,,淄博,treat,1,餐饮服务,050000
B0FFJ3TR1M,小扁担串串香(全国总店),餐饮服务;中餐厅;火锅店,050117,118.039045,36.809194,山东省,淄博市,张店区,尚美第三城20号楼,,淄博,treat,1,餐饮服务,050000
B0FFIYIXZ4,七公江湖烧烤城(高苑路店),餐饮服务;餐饮相关场所;餐饮相关,050000,117.847542,37.165552,山东省,淄博市,高青县,新天地农贸市场东50米路南,,淄博,treat,1,餐饮服务,050000
B0FFIVBZT3,重庆石锅鱼(重庆路店),餐饮服务;餐饮相关场所;餐饮相关,050000,118.001048,36.803795,山东省,淄博市,张店区,马尚镇东南村小区东门北往南数第二间,,淄博,treat,1,餐饮服务,050000
B0FFIUU5NG,屯里人家火锅店,餐饮服务;中餐厅;火锅店,050117,117.985425,36.735025,山东省,淄博市,淄川区,双杨镇小屯村金龙街,,淄博,treat,1,餐饮服务,050000
B0FFIR53TH,淄博张店馨膳坊饭店,餐饮服务;餐饮相关场所;餐饮相关,050000,118.028635,36.80315,山东省,淄博市,张店区,新村186号,,淄博,treat,1,餐饮服务,050000
B0FFILD9EL,知味鲜海鲜家常菜,餐饮服务;中餐厅;海鲜酒楼,050119,118.024842,36.842491,山东省,淄博市,张店区,世纪路中润华侨城西门阳光国际A座东一楼,,淄博,treat,1,餐饮服务,050000
B0FFI9U6YU,老渔民海鲜大酒店,餐饮服务;餐饮相关场所;餐饮相关,050000,118.292125,36.831025,山东省,淄博市,临淄区,齐兴路188号,,淄博,treat,1,餐饮服务,050000
B0FFHSKSV8,曾太美食,餐饮服务;中餐厅;中餐厅,050100,118.061973,36.803139,山东省,淄博市,张店区,万象汇内街华润小学对面共青团东路南一巷27号,,淄博,treat,1,餐饮服务,050000
B0FFHNG12Q,张店吕记全羊馆,餐饮服务;中餐厅;中餐厅,050100,117.989178,36.863605,山东省,淄博市,张店区,房镇镇于营村,,淄博,treat,1,餐饮服务,050000
B0FFHLIPXG,农家木火炖,餐饮服务;中餐厅;中餐厅,050100,118.072765,36.854458,山东省,淄博市,张店区,金晶大道与民祥路交汇处西200米路南,,淄博,treat,1,餐饮服务,050000
B0FFHK1BXM,川西大坝子(沂源店),餐饮服务;餐饮相关场所;餐饮相关,050000,118.194312,36.190808,山东省,淄博市,沂源县,富源路与振兴路交叉口北200米,,淄博,treat,1,餐饮服务,050000
B0FFHJB4NF,味老香菜馆(万象汇店),餐饮服务;中餐厅;中餐厅,050100,118.063505,36.801539,山东省,淄博市,张店区,东一路40号万象汇东门对面,,淄博,treat,1,餐饮服务,050000
B0FFHHFV8H,老新城煎包,餐饮服务;快餐厅;快餐厅,050300,117.946638,36.954412,山东省,淄博市,桓台县,新城镇城北村2组58号,,淄博,treat,1,餐饮服务,050000
B0FFHD7DL3,小燕子窝主题餐厅(中润·华侨城十五组团店),餐饮服务;中餐厅;中餐厅,050100,118.031897,36.835967,山东省,淄博市,张店区,中润·华侨城十五组团东门北50米,,淄博,treat,1,餐饮服务,050000
B0FFH66F3A,老屋记忆·土耳其烤肉饭(山铝店),餐饮服务;中餐厅;中餐厅,050100,118.046125,36.754125,山东省,淄博市,张店区,南定镇山铝职业学院花园路16号,,淄博,treat,1,餐饮服务,050000
B0FFGN3S81,家饭拌饭烤肉韩国料理,餐饮服务;中餐厅;中餐厅,050100,118.04537,36.822497,山东省,淄博市,张店区,张桓路2号甲19号,,淄博,treat,1,餐饮服务,050000
B0FFG63I66,老刘鸡汤豆腐(胜利桥生活区店),餐饮服务;中餐厅;中餐厅,050100,118.041186,36.792376,山东省,淄博市,张店区,胜利桥生活区西区西北1门北90米,,淄博,treat,1,餐饮服务,050000
B0FFG418BF,凯悦西餐厅(淄博黄金国际店),餐饮服务;外国餐厅;西餐厅(综合风味),050201,118.031764,36.823767,山东省,淄博市,张店区,西六路黄金国际营销中心2层,,淄博,treat,1,餐饮服务,050000
B0FFG3NGT0,永成带皮五花肉(金茵店),餐饮服务;中餐厅;特色/地方风味餐厅,050118,118.321996,36.823663,山东省,淄博市,临淄区,遄台路119号附近烧烤店特色烤肉中餐餐饮美食推荐,,淄博,treat,1,餐饮服务,050000
B0FFG3NFOS,夜明珠小海鲜家常菜(潘南路店),餐饮服务;中餐厅;海鲜酒楼,050119,118.054357,36.816657,山东省,淄博市,张店区,潘南路与市府西一街交叉口西南40米,,淄博,treat,1,餐饮服务,050000
B0FFFYY174,蒙山蚂蚱鸡(大顺路店),餐饮服务;中餐厅;中餐厅,050100,118.297962,36.82577,山东省,淄博市,临淄区,大顺路111号体育城西邻,,淄博,treat,1,餐饮服务,050000
B0FFFX8WOP,大红门烧烤(店子村),餐饮服务;中餐厅;特色/地方风味餐厅,050118,117.992985,36.903908,山东省,淄博市,桓台县,果里镇周家店子,,淄博,treat,1,餐饮服务,050000
B0FFF75Y13,大红门·博山菜(共青团路八大局店),餐饮服务;中餐厅;特色/地方风味餐厅,050118,118.030723,36.807905,山东省,淄博市,张店区,共青团路135号1-2层,,淄博,treat,1,餐饮服务,050000
B0FFF0BVDJ,泰丰全羊火锅,餐饮服务;中餐厅;火锅店,050117,118.041605,36.734476,山东省,淄博市,张店区,张南路395号大锅全羊羊排烧烤铜火锅手切羊肉羊蝎子附近烤肉店周边羊肉火锅推荐,,淄博,treat,1,餐饮服务,050000
B02150R0HH,水晶宫鲜花蛋糕(淄川淄城店),购物服务;专卖店;礼品饰品店|生活服务;洗浴推拿场所;洗浴推拿场所|餐饮服务;糕饼店;糕饼店,061209|071400|050800,117.976215,36.645871,山东省,淄博市,淄川区,淄城东路387号(银座商城斜对面),,淄博,treat,1,餐饮服务,050000
B02150QNY4,合家亲妈妈菜·博山菜(联通路店),餐饮服务;中餐厅;中餐厅,050100,118.015104,36.829218,山东省,淄博市,张店区,联通路147甲2号农广大厦1层(世纪花园对面),,淄博,treat,1,餐饮服务,050000
B02150QMWA,陶然香火锅居(将军路店),餐饮服务;中餐厅;火锅店,050117,117.971523,36.629764,山东省,淄博市,淄川区,淄城东路622号,,淄博,treat,1,餐饮服务,050000
B02150QKAF,学伟烧烤火锅(天齐路),餐饮服务;中餐厅;火锅店,050117,118.329326,36.805318,山东省,淄博市,临淄区,牛山路397甲1-2,,淄博,treat,1,餐饮服务,050000
B02150QFE1,阿喆私房菜(西五路店),餐饮服务;中餐厅;中餐厅,050100,118.037616,36.845793,山东省,淄博市,张店区,天府明城小区20号楼,,淄博,treat,1,餐饮服务,050000
B02150Q9YJ,金甫庄园(前进居民生活区西),餐饮服务;中餐厅;中餐厅,050100,117.820195,36.801265,山东省,淄博市,周村区,新建路西外环西首与交叉路口,,淄博,treat,1,餐饮服务,050000
B021504JXL,东海鲜味园(周村店),餐饮服务;中餐厅;海鲜酒楼,050119,117.849453,36.805836,山东省,淄博市,周村区,东门路252号(近青年路),,淄博,treat,1,餐饮服务,050000
B021504I7J,陶然香火锅居(昆仑店),餐饮服务;中餐厅;火锅店,050117,117.91889,36.58653,山东省,淄博市,淄川区,阳光龙庭生活区广场(卫生院旁边),,淄博,treat,1,餐饮服务,050000
B021504CTI,北山饭店,餐饮服务;中餐厅;中餐厅,050100,118.354073,36.796049,山东省,淄博市,临淄区,齐陵街道北山西村,,淄博,treat,1,餐饮服务,050000
B021503WKW,双龙池食品店,餐饮服务;糕饼店;糕饼店,050800,117.876685,36.506296,山东省,淄博市,博山区,五岭路与青龙山北路交汇处东50米路南,,淄博,treat,1,餐饮服务,050000
B021503TUR,老何牛肉面,餐饮服务;中餐厅;清真菜馆,050121,118.186653,36.768278,山东省,淄博市,临淄区,兴边路汞山农贸市场北,,淄博,treat,1,餐饮服务,050000
B021502ZYI,三玉炒鸡,餐饮服务;中餐厅;中餐厅,050100,118.075675,36.873225,山东省,淄博市,张店区,赵王路北沿街房12号,,淄博,treat,1,餐饮服务,050000
B0FFFZY65D,临朐手扒全羊,餐饮服务;中餐厅;中餐厅,050100,118.291354,36.790663,山东省,淄博市,临淄区,辛店街道乙烯路227号,,淄博,treat,1,餐饮服务,050000
B02150021D,万杰国际大酒店,住宿服务;宾馆酒店;四星级宾馆|餐饮服务;餐饮相关场所;餐饮相关,100103|050000,117.854192,36.541102,山东省,淄博市,博山区,经济开发区岜山村平安路15号,,淄博,treat,1,餐饮服务,050000
B0FFI6F6UD,新时代火锅烧烤广场(开发区店),餐饮服务;中餐厅;火锅店,050117,118.100159,36.974652,山东省,淄博市,桓台县,索镇工业一路1354号办公楼一楼西侧房屋,,淄博,treat,1,餐饮服务,050000
B0FFGEY565,大自然庄园,餐饮服务;中餐厅;中餐厅,050100,118.300918,36.859325,山东省,淄博市,临淄区,齐城农业高新技术开发区农圣路7号桓公台生态家园对面,,淄博,treat,1,餐饮服务,050000
B0FFFP6XOQ,新泰炒鸡园,餐饮服务;中餐厅;特色/地方风味餐厅,050118,117.94407,36.633609,山东省,淄博市,淄川区,城南镇石门村万通加油站西200米,,淄博,treat,1,餐饮服务,050000
B0FFGZPMB1,陈小二炒鸡(润生家园店),餐饮服务;中餐厅;中餐厅,050100,118.188699,36.189234,山东省,淄博市,沂源县,润生路与振兴路交叉口北240米,,淄博,treat,1,餐饮服务,050000
B0LRX730ZF,LINLEE·手打柠檬茶(临淄茂业时代店),餐饮服务;休闲餐饮场所;休闲餐饮场所,050400,118.296026,36.817463,山东省,淄博市,临淄区,雪宫街道茂业时代广场八楼,,淄博,treat,1,餐饮服务,050000
B0LDZ5UYB7,韩苑·泥炉烤肉(茂业时代广场店),餐饮服务;外国餐厅;韩国料理,050203,118.296085,36.817637,山东省,淄博市,临淄区,大顺路68号茂业百货时代店F8层,,淄博,treat,1,餐饮服务,050000
B0L1HHXBZR,华莱士·全鸡汉堡(淄博南定朝阳路店),餐饮服务;快餐厅;快餐厅,050300,118.051173,36.769742,山东省,淄博市,张店区,南定镇经济开发区南定镇张南路与朝阳路交叉口东南角西起第二间沿街房,,淄博,treat,1,餐饮服务,050000
B0KRX5SOP9,华莱士·全鸡汉堡(未来城店),餐饮服务;快餐厅;快餐厅,050300,118.068213,36.965282,山东省,淄博市,桓台县,唐山镇恒生未来城26号楼102商铺,,淄博,treat,1,餐饮服务,050000
B0ID7CIL4K,大角鹿瓷砖(北辛建材市场店),餐饮服务;餐饮相关场所;餐饮相关,050000,118.112214,36.967036,山东省,淄博市,桓台县,张北路北辛建材市场,,淄博,treat,1,餐饮服务,050000
B0FFJ0DSHI,米乡缘米线炒米粉(大棚街店),餐饮服务;餐饮相关场所;餐饮相关,050000,118.300356,36.813092,山东省,淄博市,临淄区,岳里街(老大棚街)2-28号,,淄博,treat,1,餐饮服务,050000
B02150021A,齐都大酒店,住宿服务;宾馆酒店;四星级宾馆|餐饮服务;餐饮相关场所;餐饮相关,100103|050000,118.308852,36.811267,山东省,淄博市,临淄区,闻韶路39号,,淄博,treat,1,餐饮服务,050000
B0FFI73VSW,张氏蛤蜊鸡(总店),餐饮服务;中餐厅;中餐厅,050100,117.863539,36.805098,山东省,淄博市,周村区,航东生活小区中心路中段1-1号,,淄博,treat,1,餐饮服务,050000
B0FFIU4AV3,昂铭妈妈菜(西六路店),餐饮服务;中餐厅;中餐厅,050100,118.031594,36.799728,山东省,淄博市,张店区,南西六路77号,,淄博,treat,1,餐饮服务,050000
B0FFG9BLOQ,马莲台山庄,餐饮服务;餐饮相关场所;餐饮相关,050000,118.347879,36.774682,山东省,淄博市,临淄区,齐王路与莲台路交叉口东南440米,,淄博,treat,1,餐饮服务,050000
B0M6GSNS8G,luckin coffee 瑞幸咖啡(棠悦广场店),餐饮服务;咖啡厅;咖啡厅,050500,118.324098,36.832554,山东省,淄博市,临淄区,遄台路220号奥德隆棠悦广场1F-005,,淄博,treat,1,餐饮服务,050000
B0H09ZLD72,华莱士·全鸡汉堡(高青万悦城店),餐饮服务;快餐厅;快餐厅,050300,117.864325,37.167625,山东省,淄博市,高青县,高苑路东首万悦城商场一楼华莱士,,淄博,treat,1,餐饮服务,050000
B0FFGBN9QA,清梅居食品(双山店),购物服务;便民商店/便利店;便民商店/便利店|餐饮服务;餐饮相关场所;餐饮相关,060200|050000,117.851202,36.499334,山东省,淄博市,博山区,博山区城西街道双山街9-10号营业房西头第二间,,淄博,treat,1,餐饮服务,050000
B021504F15,御茗府茶楼,餐饮服务;茶艺馆;茶艺馆,050600,118.292699,36.809172,山东省,淄博市,临淄区,牛山路齐国商城8号楼(公园北门对过),,淄博,treat,1,餐饮服务,050000
B0FFJT2K0L,金品家宴(正阳路店),餐饮服务;中餐厅;中餐厅,050100,117.867176,36.817772,山东省,淄博市,周村区,正阳路4611号(西门牌坊南邻),,淄博,treat,1,餐饮服务,050000
B0FFIBO76H,翕善堂博山菜(金桥商务中心店),餐饮服务;中餐厅;山东菜(鲁菜),050104,118.073056,36.817319,山东省,淄博市,张店区,华光路10甲19-20号,,淄博,treat,1,餐饮服务,050000
B0FFHS2Z2Z,孙泽涛辣豆腐(和平社区店),餐饮服务;餐饮相关场所;餐饮相关,050000,118.037766,36.799699,山东省,淄博市,张店区,和平小区46甲北侧,,淄博,treat,1,餐饮服务,050000
B0FFGYBFQJ,周波寿司店,餐饮服务;外国餐厅;日本料理,050202,118.042434,36.818197,山东省,淄博市,张店区,新世界商业步行街北段91号甲3号,,淄博,treat,1,餐饮服务,050000
B0FFG6Y44D,钓鱼翁特色全鱼馆,餐饮服务;中餐厅;中餐厅,050100,118.090725,36.950128,山东省,淄博市,桓台县,桓台城区东岳路金太洋小区沿街房659号,,淄博,treat,1,餐饮服务,050000
B0FFF4ZAZ0,马踏湖鲜鱼馆香和院,餐饮服务;中餐厅;中餐厅,050100,118.05955,37.062672,山东省,淄博市,桓台县,起凤镇华沟村村西路北距离马踏湖南门888米,,淄博,treat,1,餐饮服务,050000
B02150R1N1,盛祥羊肉馆,餐饮服务;中餐厅;综合酒楼,050101,118.169828,36.171035,山东省,淄博市,沂源县,历山街道沿河东路螳螂河大桥南200米,,淄博,treat,1,餐饮服务,050000
B02150QFBD,伊特蛋糕(紫荆园店),餐饮服务;糕饼店;糕饼店,050800,118.053414,36.832825,山东省,淄博市,张店区,紫荆园小区1层13号,,淄博,treat,1,餐饮服务,050000
B021504MN1,西屋往事自动涮烤吧(联通路店),餐饮服务;中餐厅;火锅店,050117,118.0578,36.826961,山东省,淄博市,张店区,科苑办事处联通路27号甲7号,,淄博,treat,1,餐饮服务,050000
B021504LQ7,海得利海鲜酒楼(联通路店),餐饮服务;中餐厅;海鲜酒楼,050119,118.014434,36.82905,山东省,淄博市,张店区,联通路147号甲2号农广大厦F1层,,淄博,treat,1,餐饮服务,050000
B021504MN1,西屋往事自动涮烤吧(联通路店),餐饮服务;中餐厅;火锅店,050117,118.0578,36.826961,山东省,淄博市,张店区,科苑办事处联通路27号甲7号,,淄博,treat,1,餐饮服务,050000
B021504LQ7,海得利海鲜酒楼(联通路店),餐饮服务;中餐厅;海鲜酒楼,050119,118.014434,36.82905,山东省,淄博市,张店区,联通路147号甲2号农广大厦F1层,,淄博,treat,1,餐饮服务,050000
B0215040LD,海福缘酒楼博山菜,餐饮服务;中餐厅;中餐厅,050100,118.050613,36.818686,山东省,淄博市,张店区,柳泉路西三巷3号(中心医院北院区与锦江之星交汇处向里66米),,淄博,treat,1,餐饮服务,050000
B0FFFU60BH,大角牛烩牛肉(十七中北街店),餐饮服务;中餐厅;中餐厅,050100,118.035349,36.811637,山东省,淄博市,张店区,中北街2号甲12号,,淄博,treat,1,餐饮服务,050000
B0FFJ1TJK3,新疆伊犁河餐厅(桓台店),餐饮服务;中餐厅;中餐厅,050100,118.099088,36.973599,山东省,淄博市,桓台县,兴桓路2577号聚荣工业园,,淄博,treat,1,餐饮服务,050000
B0FFFX49IF,爱姆蛋糕店(沂源店),餐饮服务;糕饼店;糕饼店,050800,118.167079,36.185191,山东省,淄博市,沂源县,振兴路24号,,淄博,treat,1,餐饮服务,050000
B021501D03,宜轩阁茶楼(世纪阳光商务中心店),餐饮服务;中餐厅;中餐厅|餐饮服务;茶艺馆;茶艺馆,050100|050600,118.03359,36.829117,山东省,淄博市,张店区,联通路84-1号(联通路和北西六路交汇东100米路北),,淄博,treat,1,餐饮服务,050000
B0M6H1DFFP,吉时咖啡,餐饮服务;咖啡厅;咖啡厅,050500,117.964331,36.642026,山东省,淄博市,淄川区,通济街135号,,淄博,treat,1,餐饮服务,050000
B0LDSD305O,清梅居食品(桓台店),餐饮服务;餐饮相关场所;餐饮相关,050000,118.094328,36.958873,山东省,淄博市,桓台县,中心大街995号,,淄博,treat,1,餐饮服务,050000
B0LAAMG36T,稻古捞面(周村古商城店),餐饮服务;餐饮相关场所;餐饮相关,050000,117.844614,36.801019,山东省,淄博市,周村区,新建中路29甲6-7,,淄博,treat,1,餐饮服务,050000
B0L3HRAXFZ,肯悦咖啡淄博恒太城店,餐饮服务;咖啡厅;咖啡厅,050500,117.9823,36.823785,山东省,淄博市,张店区,华光路淄博恒太城一层,,淄博,treat,1,餐饮服务,050000
B0K34CKZMB,BuffCat巴夫猫·小酒馆(淄博万象汇店),餐饮服务;中餐厅;中餐厅,050100,118.061886,36.802603,山东省,淄博市,张店区,共青团东路南一巷45号,,淄博,treat,1,餐饮服务,050000
B0I3FL0FLL,知味斋肴鸡(古商城店),餐饮服务;中餐厅;中餐厅,050100,117.838975,36.800225,山东省,淄博市,周村区,新建西路与文昌街交叉口东南80米,,淄博,treat,1,餐饮服务,050000
B0H6OAR69X,清梅居食品(翡翠园店),购物服务;综合市场;农副产品市场|餐饮服务;餐饮相关场所;餐饮相关,060703|050000,117.872113,36.512931,山东省,淄博市,博山区,城东街道珑山路101号(翡翠园小区对面),,淄博,treat,1,餐饮服务,050000
B0G0FLB9GR,周村烧饼展厅,餐饮服务;餐饮相关场所;餐饮相关,050000,117.911425,36.773525,山东省,淄博市,周村区,高萌路211号,,淄博,treat,1,餐饮服务,050000
B0FFHGUQTX,得益巴氏鲜奶(瑞安路店),购物服务;综合市场;农副产品市场|餐饮服务;餐饮相关场所;餐饮相关,060703|050000,118.020767,36.809604,山东省,淄博市,张店区,瑞安路48号凯瑞安园,,淄博,treat,1,餐饮服务,050000
B0FFG2JC1P,黄记煌三汁焖锅(时代茂业百货店),餐饮服务;中餐厅;火锅店,050117,118.296264,36.817376,山东省,淄博市,临淄区,大顺路茂业时代广场8层,,淄博,treat,1,餐饮服务,050000
B021504HOU,文姜大酒店,住宿服务;宾馆酒店;宾馆酒店|餐饮服务;中餐厅;中餐厅,100100|050100,117.857909,36.48168,山东省,淄博市,博山区,新博路6号文姜大厦1层,,淄博,treat,1,餐饮服务,050000
B0FFF5P4WH,桓台爵士西餐厅(旭景豪园店),餐饮服务;餐饮相关场所;餐饮相关,050000,118.084765,36.95831,山东省,淄博市,桓台县,中心大街惠仟佳斜对过旭景豪园商业铺12号,,淄博,treat,1,餐饮服务,050000
B0FFJNTA18,厚德福李家大院(泰美路店),餐饮服务;中餐厅;中餐厅,050100,118.049874,36.841887,山东省,淄博市,张店区,泰美路11号,,淄博,treat,1,餐饮服务,050000
B0FFGPLY68,崔老三鲜鱼馆,餐饮服务;中餐厅;山东菜(鲁菜),050104,117.885198,37.256375,山东省,淄博市,高青县,常家镇刘春家村159号,,淄博,treat,1,餐饮服务,050000
B021503WIG,新疆大盘鸡(淄博博山区万杰店),餐饮服务;中餐厅;西北菜,050115,117.848131,36.538704,山东省,淄博市,博山区,域城镇健康大道65号,,淄博,treat,1,餐饮服务,050000
B0FFIQ4LH0,吉米私房菜(临淄店),餐饮服务;中餐厅;综合酒楼,050101,118.321193,36.815194,山东省,淄博市,临淄区,遄台路52号(石鼓新村西门南100米路东),,淄博,treat,1,餐饮服务,050000
B0FFH8XXEJ,大西北私房菜(工业路店),餐饮服务;中餐厅;中餐厅,050100,118.103155,36.969804,山东省,淄博市,桓台县,城区工业路南首商住楼699号甲5号,,淄博,treat,1,餐饮服务,050000
B0FFG2S0SD,齐园家宴,餐饮服务;中餐厅;中餐厅,050100,118.293914,36.809042,山东省,淄博市,临淄区,牛山路103号,,淄博,treat,1,餐饮服务,050000
B0FFH8XXEJ,大西北私房菜(工业路店),餐饮服务;中餐厅;中餐厅,050100,118.103155,36.969804,山东省,淄博市,桓台县,城区工业路南首商住楼699号甲5号,,淄博,treat,1,餐饮服务,050000
B0FFG2S0SD,齐园家宴,餐饮服务;中餐厅;中餐厅,050100,118.293914,36.809042,山东省,淄博市,临淄区,牛山路103号,,淄博,treat,1,餐饮服务,050000
B0FFG2CV9Z,正宗安徽板面(仟佳购物街店),餐饮服务;中餐厅;中餐厅,050100,118.088632,36.960129,山东省,淄博市,桓台县,中心大街1025号靠近中国工商银行,,淄博,treat,1,餐饮服务,050000
B0FFF6Z078,旺旺大串烧烤(凯瑞时代大厦店),餐饮服务;中餐厅;特色/地方风味餐厅,050118,118.016245,36.814572,山东省,淄博市,张店区,马尚镇人民西路237号凯瑞时代大厦一楼,,淄博,treat,1,餐饮服务,050000
B021504I0R,青云大酒店(淄川店),餐饮服务;中餐厅;中餐厅,050100,118.002062,36.623339,山东省,淄博市,淄川区,洪山镇聊斋路76号,,淄博,treat,1,餐饮服务,050000
B021503RUE,妈妈菜老店(兴桓路店),餐饮服务;中餐厅;中餐厅,050100,118.099128,36.951134,山东省,淄博市,桓台县,兴桓路57号(大转盘西北角),,淄博,treat,1,餐饮服务,050000
B0FFK09WVI,新味都博山菜,餐饮服务;中餐厅;中餐厅,050100,118.029088,36.813929,山东省,淄博市,张店区,人民西路57号甲8号,,淄博,treat,1,餐饮服务,050000
B0FFJ1DYOU,余小闲,餐饮服务;中餐厅;中餐厅,050100,118.024296,36.824957,山东省,淄博市,张店区,华光路268号玉龙商铺南街义务小商品城三期对过,,淄博,treat,1,餐饮服务,050000
B0FFILL6FD,董家韩国料理,餐饮服务;餐饮相关场所;餐饮相关,050000,118.037807,36.80928,山东省,淄博市,张店区,北西五路尚美第三城日出日落西南侧,,淄博,treat,1,餐饮服务,050000
B0FFIL1RE2,烟台人家(淄博张店区),餐饮服务;餐饮相关场所;餐饮相关,050000,118.001732,36.846241,山东省,淄博市,张店区,丰宁路开发区中路北曦园小区1号,,淄博,treat,1,餐饮服务,050000
B0FFI72G7J,知味斋肴鸡(正阳路店),餐饮服务;中餐厅;中餐厅,050100,117.867162,36.805324,山东省,淄博市,周村区,知味斋涮坊南邻正阳路3237号,,淄博,treat,1,餐饮服务,050000
B0FFHG67KZ,鲜花椒炒鸡(市府东一街店),餐饮服务;中餐厅;山东菜(鲁菜),050104,118.056513,36.815381,山东省,淄博市,张店区,市府东一街8号楼西头(鑫悦超市旁花椒鸡),,淄博,treat,1,餐饮服务,050000
B0FFG45JOS,金顺园(清田苑店),餐饮服务;中餐厅;清真菜馆,050121,118.211772,36.800475,山东省,淄博市,临淄区,金岭回族金岭回族镇,,淄博,treat,1,餐饮服务,050000
B0FFFY5T32,重庆炸酱面(理工大学店),餐饮服务;中餐厅;四川菜(川菜),050102,118.002313,36.818246,山东省,淄博市,张店区,山东理工大学西校区北门重庆路以西金润和谐居小区7号楼14号,,淄博,treat,1,餐饮服务,050000
B0FFFWNW7Q,欢饮(SM广场店),餐饮服务;冷饮店;冷饮店,050700,117.961559,36.643703,山东省,淄博市,淄川区,般阳路8号SM广场1F层,,淄博,treat,1,餐饮服务,050000
B0FFFTA6IT,山铝牛筋面(花园小区店),餐饮服务;中餐厅;中餐厅,050100,118.046722,36.754831,山东省,淄博市,张店区,花园小区西北2门旁,,淄博,treat,1,餐饮服务,050000
B0FFFQ5NB8,哈尔滨烧烤城,餐饮服务;中餐厅;特色/地方风味餐厅,050118,118.043945,36.829341,山东省,淄博市,张店区,张桓路91甲5(明清街与联通路交叉口北50米路西),,淄博,treat,1,餐饮服务,050000
B02150RTXJ,景丰肥牛(理工大西校店),餐饮服务;中餐厅;火锅店,050117,118.002441,36.816692,山东省,淄博市,张店区,人民路与重庆路交汇处亿丰大厦3层,,淄博,treat,1,餐饮服务,050000
B02150RRQ7,山城老菜馆,餐饮服务;中餐厅;四川菜(川菜),050102,117.871156,36.795207,山东省,淄博市,周村区,博泰花园北门东北60米,,淄博,treat,1,餐饮服务,050000
B02150R6HB,小寒羊烧烤(凯瑞时代大厦店),餐饮服务;中餐厅;特色/地方风味餐厅,050118,118.015915,36.814577,山东省,淄博市,张店区,人民西路239号凯瑞时代大厦1层,,淄博,treat,1,餐饮服务,050000
B02150QZQM,甫东食品店,餐饮服务;糕饼店;糕饼店,050800,117.975868,36.644077,山东省,淄博市,淄川区,淄城东路434号,,淄博,treat,1,餐饮服务,050000
B02150QIOC,博山回民饭店,餐饮服务;中餐厅;清真菜馆,050121,117.864352,36.502408,山东省,淄博市,博山区,税务街13号,,淄博,treat,1,餐饮服务,050000
B02150QFCG,顺意海鲜楼(中润大道店),餐饮服务;中餐厅;海鲜酒楼,050119,118.041075,36.837382,山东省,淄博市,张店区,高新区中润大道69-2号西四路和西五路中间路北中德地产西邻,,淄博,treat,1,餐饮服务,050000
B021504DZ0,贾李羊汤(杨坡路店),餐饮服务;中餐厅;中餐厅,050100,118.289599,36.815895,山东省,淄博市,临淄区,杨坡路363号完美靓车时代,,淄博,treat,1,餐饮服务,050000
B021503ZD6,图们烧烤,餐饮服务;中餐厅;特色/地方风味餐厅,050118,118.043692,36.83548,山东省,淄博市,张店区,明清街131号(金信家园对面),,淄博,treat,1,餐饮服务,050000
B021503X83,顺祥斋(新博店),餐饮服务;中餐厅;中餐厅,050100,117.864069,36.476006,山东省,淄博市,博山区,山头镇新博路78号,,淄博,treat,1,餐饮服务,050000
B021502YVC,香悦粥铺(南西六路店),餐饮服务;中餐厅;中餐厅,050100,118.03149,36.798423,山东省,淄博市,张店区,南西六路132号,,淄博,treat,1,餐饮服务,050000
B021502U57,中宝金肥羊(人民路店),餐饮服务;中餐厅;中餐厅,050100,118.016985,36.814489,山东省,淄博市,张店区,人民西路231号(近凯瑞碧园大门),,淄博,treat,1,餐饮服务,050000
B021502TBD,花山大酒店,餐饮服务;中餐厅;综合酒楼,050101,118.125507,36.819924,山东省,淄博市,张店区,鲁山大道,,淄博,treat,1,餐饮服务,050000
B0FFISCEHC,鲁山全羊烧烤,餐饮服务;中餐厅;中餐厅,050100,118.041147,36.84383,山东省,淄博市,张店区,万杰路83号,,淄博,treat,1,餐饮服务,050000
B0FFFXL5B7,麦嘟蛋糕,餐饮服务;糕饼店;糕饼店,050800,118.018351,36.825346,山东省,淄博市,张店区,义乌路商城街87号,,淄博,treat,1,餐饮服务,050000
B021503B2N,全家福西点蛋糕(西山四街生活区店),餐饮服务;糕饼店;糕饼店,050800,118.039776,36.75354,山东省,淄博市,张店区,南定镇山铝生活区西山4街24号楼1号,,淄博,treat,1,餐饮服务,050000
B0FFGEGGQX,牛小静的烘焙坊(总店),餐饮服务;糕饼店;糕饼店,050800,118.008852,36.818489,山东省,淄博市,张店区,南京路石村南巷36号,,淄博,treat,1,餐饮服务,050000
B0FFJUCNIA,丁家煮锅,餐饮服务;中餐厅;中餐厅,050100,117.842061,36.800202,山东省,淄博市,周村区,古商业街大街北首280号,,淄博,treat,1,餐饮服务,050000
B0FFI6LE7U,杨家大厨涮肉坊(高青店),餐饮服务;中餐厅;火锅店,050117,117.832953,37.166351,山东省,淄博市,高青县,中心路电影院南邻杨家大厨涮肉坊高青店,,淄博,treat,1,餐饮服务,050000
B0FFHG2QU5,小北京传统火锅(吉祥广场店),餐饮服务;中餐厅;火锅店,050117,117.973749,36.656774,山东省,淄博市,淄川区,吉祥广场海汇电器斜对面工商银行向北50米,,淄博,treat,1,餐饮服务,050000
B0FFH6ATIJ,牛王一村全羊汤(历山路店),餐饮服务;餐饮相关场所;餐饮相关,050000,118.163416,36.195837,山东省,淄博市,沂源县,历山路北首1号,,淄博,treat,1,餐饮服务,050000
B0FFGPC3KS,老字号晓妮姐重庆鸡公煲(西二路总店),餐饮服务;中餐厅;四川菜(川菜),050102,118.053845,36.800241,山东省,淄博市,张店区,西二路76号甲11号(银座家居路口向北50米路东),,淄博,treat,1,餐饮服务,050000
B0FFG9C6WY,龙门虾馆,餐饮服务;中餐厅;海鲜酒楼,050119,118.027223,36.840892,山东省,淄博市,张店区,华侨城西门南侧,,淄博,treat,1,餐饮服务,050000
B0FFG3IMVK,唐记牛肉汤(洪沟路),餐饮服务;中餐厅;中餐厅,050100,118.073856,36.790943,山东省,淄博市,张店区,洪沟路18号(大成农药东20米),,淄博,treat,1,餐饮服务,050000
B0FFFWZE7A,聚福阁食府(山川路店),餐饮服务;中餐厅;中餐厅,050100,117.960133,36.632036,山东省,淄博市,淄川区,山川路山水缘二期2号甲5号,,淄博,treat,1,餐饮服务,050000
B0FFFQ3AFL,杨家大厨,餐饮服务;中餐厅;火锅店,050117,118.06813,36.803295,山东省,淄博市,张店区,共青团路与东二路交汇路口南50米路西,,淄博,treat,1,餐饮服务,050000
B0FFFP2CLW,马师傅麻辣烫(淄博张店区),餐饮服务;中餐厅;火锅店|餐饮服务;中餐厅;特色/地方风味餐厅,050117|050118,118.04563,36.75354,山东省,淄博市,张店区,南定镇花园路23号(工商银行东侧),,淄博,treat,1,餐饮服务,050000
B0FFFFLP64,土状元老菜馆,餐饮服务;中餐厅;中餐厅,050100,118.099654,36.968799,山东省,淄博市,桓台县,兴桓路142号,,淄博,treat,1,餐饮服务,050000
B0FFFAGAEY,维罗纳大酒店,餐饮服务;中餐厅;中餐厅,050100,118.057225,36.798937,山东省,淄博市,张店区,新村西路2号(金晶大道与新村西路西200米),,淄博,treat,1,餐饮服务,050000
B02150SM96,千岛渔村(正阳路店),餐饮服务;中餐厅;中餐厅,050100,117.868273,36.794616,山东省,淄博市,周村区,正阳路2094号,,淄博,treat,1,餐饮服务,050000
B02150QQR6,沂源全羊馆(宋家店),餐饮服务;中餐厅;中餐厅,050100,118.061342,36.840397,山东省,淄博市,张店区,政通路145号甲4号,,淄博,treat,1,餐饮服务,050000
B02150QOIR,乡野农家,餐饮服务;中餐厅;中餐厅|体育休闲服务;休闲场所;休闲场所,050100|080500,118.019169,36.809586,山东省,淄博市,张店区,共青团西路208号,,淄博,treat,1,餐饮服务,050000
B02150QFLB,春夏秋冬连锁餐饮机构(遄台店),餐饮服务;中餐厅;中餐厅,050100,118.321518,36.817206,山东省,淄博市,临淄区,遄台路84号,,淄博,treat,1,餐饮服务,050000
B021504KJT,周村金凯悦(丝绸路店),体育休闲服务;娱乐场所;KTV|餐饮服务;中餐厅;中餐厅,080302|050100,117.858649,36.801813,山东省,淄博市,周村区,丝绸路32号银座东门对面,,淄博,treat,1,餐饮服务,050000
B0L2CCIVQ5,淄博万象汇,购物服务;商场;购物中心,060101,118.061399,36.802119,山东省,淄博市,张店区,金晶大道辅路,,淄博,treat,1,购物服务,060000
B0FFIR5H07,富力万达广场,购物服务;购物相关场所;购物相关场所,060000,118.010986,36.838791,山东省,淄博市,张店区,中润大道17号,,淄博,treat,1,购物服务,060000
B0FFMADXYQ,吾悦广场(淄博店),购物服务;商场;购物中心,060101,118.025098,36.783679,山东省,淄博市,张店区,世纪路昌国路交汇处东南角,,淄博,treat,1,购物服务,060000
B0FFG3G405,银泰城,购物服务;商场;购物中心,060101,118.034853,36.848682,山东省,淄博市,张店区,鲁泰大道9号,,淄博,treat,1,购物服务,060000
B021503RWC,信誉楼百货(桓台店),购物服务;商场;普通商场,060102,118.09803,36.94643,山东省,淄博市,桓台县,张北路1373号,,淄博,treat,1,购物服务,060000
B0FFFFQAME,八大局便民市场,购物服务;综合市场;综合市场,060700,118.06539,36.807558,山东省,淄博市,张店区,人民东路6号,,淄博,treat,1,购物服务,060000
B0G13R1AAI,淄博鑫马吾悦广场,购物服务;商场;商场,060100,118.001652,36.824664,山东省,淄博市,张店区,华光路288号,,淄博,treat,1,购物服务,060000
B0GRK53MVK,吾悦广场(淄博周村店),购物服务;商场;购物中心,060101,117.866457,36.823203,山东省,淄博市,周村区,正阳路5299号,,淄博,treat,1,购物服务,060000
B021504AR8,淄博华川小商品城,购物服务;综合市场;小商品市场,060701,118.02133,36.824093,山东省,淄博市,张店区,[],,淄博,treat,1,购物服务,060000
B0FFJBRCBT,山东博发综合批发市场,购物服务;综合市场;果品市场,060704,117.995647,36.793431,山东省,淄博市,张店区,淄博博发市场南2门旁,,淄博,treat,1,购物服务,060000
B02150ROZE,淄博义乌小商品城2期,购物服务;综合市场;小商品市场,060701,118.021685,36.825098,山东省,淄博市,张店区,马尚镇华光路198号,,淄博,treat,1,购物服务,060000
B021500FB9,淄博王府井广场,购物服务;商场;购物中心,060101,118.051895,36.805278,山东省,淄博市,张店区,共青团路与柳泉路交叉口,,淄博,treat,1,购物服务,060000
B0FFFPXRIG,居然之家淄博店,购物服务;家居建材市场;家具建材综合市场|购物服务;家居建材市场;家具城,060601|060602,118.057015,36.840896,山东省,淄博市,张店区,淄博高新区柳泉路西政通路北(火炬大厦北邻),,淄博,treat,1,购物服务,060000
B0FFJM6EX3,印象汇,购物服务;商场;普通商场|购物服务;体育用品店;体育用品店,060102|060900,118.053114,36.822911,山东省,淄博市,张店区,柳泉路67号,,淄博,treat,1,购物服务,060000
B02150QZ8D,SM广场,购物服务;商场;购物中心,060101,117.962256,36.643708,山东省,淄博市,淄川区,般阳路8号,,淄博,treat,1,购物服务,060000
B0KR5SVJ1M,淄博恒太城,购物服务;商场;普通商场,060102,117.982976,36.823338,山东省,淄博市,张店区,华光路331号,,淄博,treat,1,购物服务,060000
B0KBF6NVEP,海岱楼·钟书阁,购物服务;专卖店;书店,061205,117.988837,36.841345,山东省,淄博市,张店区,齐盛湖公园内海岱楼(东北角),,淄博,treat,1,购物服务,060000
B0J1THHLC0,八大局网红街,购物服务;特色商业街;特色商业街,061000,118.064888,36.805009,山东省,淄博市,张店区,共青团东路北二巷4号(八大局南门进口路东100米),,淄博,treat,1,购物服务,060000
B0FFM8IAA1,信誉楼百货(周村店),购物服务;商场;普通商场|购物服务;便民商店/便利店;便民商店/便利店,060102|060200,117.851852,36.807588,山东省,淄博市,周村区,东街与青年路交叉口西北角,,淄博,treat,1,购物服务,060000
B021504O30,新玛特购物广场(中润店),购物服务;商场;购物中心,060101,118.028589,36.837956,山东省,淄博市,张店区,中润大道1号,,淄博,treat,1,购物服务,060000
B0FFIE4D6G,淄博商厦,购物服务;商场;普通商场|购物服务;家电电子卖场;手机销售,060102|060305,118.058471,36.802055,山东省,淄博市,张店区,金晶大道125号,,淄博,treat,1,购物服务,060000
B021500FB5,银座商城(淄博店),购物服务;商场;普通商场,060102,118.050481,36.805504,山东省,淄博市,张店区,银座商城负一层依兰坊,,淄博,treat,1,购物服务,060000
B021504B8Y,惠仟佳,购物服务;商场;普通商场,060102,118.087429,36.959942,山东省,淄博市,桓台县,中心大街1650号,,淄博,treat,1,购物服务,060000
B0FFG9H469,鲁中蔬菜批发市场,购物服务;综合市场;蔬菜市场,060705,118.051281,36.780793,山东省,淄博市,张店区,张南路和昌国路交叉口东南角,,淄博,treat,1,购物服务,060000
B0KDH5KNAQ,八大局大街,购物服务;特色商业街;特色商业街,061000,118.063748,36.808915,山东省,淄博市,张店区,金晶大道东二街1号甲1号,,淄博,treat,1,购物服务,060000
B02150QA1Q,银座·奥特莱斯(柳泉路店),购物服务;商场;购物中心,060101,118.056075,36.834419,山东省,淄博市,张店区,柳泉路105号,,淄博,treat,1,购物服务,060000
B0KUYZWHT4,周村家具批发中心(北市场),购物服务;家居建材市场;家具城,060602,117.857695,36.787933,山东省,淄博市,周村区,周隆路2295号,,淄博,treat,1,购物服务,060000
B0J0RZKHCL,淄博义乌小商品城一期,购物服务;综合市场;小商品市场,060701,118.021555,36.823656,山东省,淄博市,张店区,华光路与瑞安路交叉口西北220米,,淄博,treat,1,购物服务,060000
B0L2CMH1OP,新玛特购物广场店,购物服务;商场;购物中心,060101,118.028601,36.837944,山东省,淄博市,张店区,中润大道1号新玛特购物广场中润店B1层,,淄博,treat,1,购物服务,060000
B0FFFRYVGV,茂业百货(时代店),购物服务;商场;普通商场|购物服务;商场;购物中心,060102|060101,118.296056,36.817538,山东省,淄博市,临淄区,大顺路68号,,淄博,treat,1,购物服务,060000
B02150RQKK,齐赛科技城,购物服务;家电电子卖场;数码电子|商务住宅;产业园区;产业园区,060306|120100,118.032365,36.812171,山东省,淄博市,张店区,北西六路9号,,淄博,treat,1,购物服务,060000
B0LUBMG2WE,盒马鲜生(富力万达广场店),购物服务;超级市场;超市,060400,118.010974,36.838866,山东省,淄博市,张店区,万达广场B1层,,淄博,treat,1,购物服务,060000
B021500FB7,利群集团淄博购物广场,购物服务;商场;购物中心,060101,118.060455,36.800429,山东省,淄博市,张店区,商场东路2号,,淄博,treat,1,购物服务,060000
B02150Q77R,淄川服装城,购物服务;服装鞋帽皮具店;服装鞋帽皮具店,061100,117.959304,36.645874,山东省,淄博市,淄川区,商城西街与淄城路交叉口东南80米,,淄博,treat,1,购物服务,060000
B021500B49,淄博新世界商业街,购物服务;特色商业街;步行街,061001,118.042176,36.805194,山东省,淄博市,张店区,商业步行街北段路东,,淄博,treat,1,购物服务,060000
B02150QJIF,银座购物广场(五里桥店),购物服务;商场;普通商场|购物服务;商场;购物中心,060102|060101,118.032224,36.813519,山东省,淄博市,张店区,人民西路51号银座购物广场1层,,淄博,treat,1,购物服务,060000
B0JKO9LJ8Q,鲁中装饰材料城,购物服务;家居建材市场;建材五金市场,060603,118.020606,36.785234,山东省,淄博市,张店区,昌国路与世纪路交叉口西300米,,淄博,treat,1,购物服务,060000
B0G307K8GZ,淄博齐盛里售楼处,购物服务;购物相关场所;购物相关场所,060000,117.98557,36.823403,山东省,淄博市,张店区,华光路与心环西路交汇处东南角,,淄博,treat,1,购物服务,060000
B0FFKMWWU4,大张村集市,购物服务;购物相关场所;购物相关场所,060000,118.02283,36.850652,山东省,淄博市,张店区,鲁泰大道大张社区,,淄博,treat,1,购物服务,060000
B0FFFV4SW5,大润发(淄博店),购物服务;超级市场;超市,060400,118.041643,36.822082,山东省,淄博市,张店区,华光路86号,,淄博,treat,1,购物服务,060000
B0215041PU,红星美凯龙淄博昌国商场(昌国路店),购物服务;家居建材市场;家具城,060602,118.033773,36.783271,山东省,淄博市,张店区,昌国西路23号,,淄博,treat,1,购物服务,060000
B021504NVN,尚美第三城,购物服务;特色商业街;特色商业街,061000,118.03836,36.809554,山东省,淄博市,张店区,北西五路6号,,淄博,treat,1,购物服务,060000
B0FFJA0AI7,广汽丰田(淄博金嘉骋山泉路店),汽车销售;丰田特约销售;广汽丰田销售|汽车维修;丰田特约维修;广汽丰田维修|购物服务;购物相关场所;购物相关场所,021002|031102|060000,118.039201,36.770576,山东省,淄博市,张店区,山泉路84号,,淄博,treat,1,购物服务,060000
B0FFFDFIDK,奥朗特广场,购物服务;商场;普通商场|购物服务;商场;购物中心,060102|060101,118.012429,36.810507,山东省,淄博市,张店区,[],,淄博,treat,1,购物服务,060000
B0FFKIQZ0Q,活力城,购物服务;商场;普通商场,060102,117.868293,36.799214,山东省,淄博市,周村区,正阳路2888号,,淄博,treat,1,购物服务,060000
B0FFMDAU02,淄博红星美凯龙(联通路店),购物服务;综合市场;综合市场,060700,118.010069,36.828799,山东省,淄博市,张店区,联通路169号红星美凯龙淄博至尊MALL,,淄博,treat,1,购物服务,060000
B0FFJ1BBLI,淄川建材城,购物服务;家居建材市场;建材五金市场,060603,118.002422,36.711288,山东省,淄博市,淄川区,兴辉路与205国道交汇处东南50米,,淄博,treat,1,购物服务,060000
B0M62MU3I7,嘉汇文具生活金带店,购物服务;文化用品店;文化用品店,060800,117.98718,36.82201,山东省,淄博市,张店区,心环东路4号,,淄博,treat,1,购物服务,060000
B0FFHCFA9H,银座百货(淄博淄川店),购物服务;商场;购物中心|购物服务;超级市场;超市,060101|060400,117.961898,36.649137,山东省,淄博市,淄川区,张博路与松龄路交叉处银座购物广场B1,,淄博,treat,1,购物服务,060000
B02150RY4B,茂业百货(广场店),购物服务;商场;购物中心,060101,118.296332,36.819241,山东省,淄博市,临淄区,大顺路69号,,淄博,treat,1,购物服务,060000
B02150Q7FN,银座商城(周村店),购物服务;购物相关场所;购物相关场所,060000,117.857427,36.801445,山东省,淄博市,周村区,丝绸路17号,,淄博,treat,1,购物服务,060000
B0FFG9F53H,易达广场,购物服务;商场;普通商场,060102,117.837451,36.497742,山东省,淄博市,博山区,域城镇中心路98号(房家门市部),,淄博,treat,1,购物服务,060000
B02150RTI3,鲁中国际商贸城,购物服务;服装鞋帽皮具店;服装鞋帽皮具店|购物服务;综合市场;综合市场,061100|060700,117.954156,36.641608,山东省,淄博市,淄川区,鲁中商贸城一楼九街B区915-917,,淄博,treat,1,购物服务,060000
B021504MM0,百脑汇,购物服务;家电电子卖场;数码电子,060306,118.048091,36.802835,山东省,淄博市,张店区,柳泉路31号,,淄博,treat,1,购物服务,060000
B0LASZ1NWH,八大局西门广场,购物服务;购物相关场所;购物相关场所,060000,118.06228,36.809413,山东省,淄博市,张店区,金晶大道140号,,淄博,treat,1,购物服务,060000
BZC7Q7006M,西冶街,购物服务;特色商业街;特色商业街,061000,117.86201,36.503592,山东省,淄博市,博山区,西冶街105号西冶街小学对面,,淄博,treat,1,购物服务,060000
B0FFF01PXP,麦德龙(淄博张店商场),购物服务;超级市场;麦德龙|公司企业;公司;公司,060406|170200,118.038197,36.767146,山东省,淄博市,张店区,经济技术开发区山泉路102号,,淄博,treat,1,购物服务,060000
B0FFG9BGLG,银座商城(高青店),购物服务;商场;普通商场,060102,117.840178,37.164578,山东省,淄博市,高青县,芦湖路301号,,淄博,treat,1,购物服务,060000
B02150R3EE,彩世界精品皮草广场,购物服务;商场;购物中心,060101,118.029104,36.822275,山东省,淄博市,张店区,华光路116号,,淄博,treat,1,购物服务,060000
B02150R1XN,成和商厦(沂源店),购物服务;商场;普通商场,060102,118.170879,36.192775,山东省,淄博市,沂源县,健康路2号,,淄博,treat,1,购物服务,060000
B021504DGF,淄博国际商贸城,购物服务;商场;商场|购物服务;综合市场;综合市场,060100|060700,117.99447,36.789472,山东省,淄博市,张店区,昌国西路88号北京路与昌国路口东北角(原陶瓷科技城D馆),,淄博,treat,1,购物服务,060000
B021500E1D,奥德隆利群购物中心(桓公路店),购物服务;商场;购物中心|购物服务;专卖店;珠宝首饰工艺品,060101|061202,118.301688,36.81396,山东省,淄博市,临淄区,桓公路99号,,淄博,treat,1,购物服务,060000
B021503YN1,淄川水产城,购物服务;综合市场;水产海鲜市场,060706,117.944179,36.649968,山东省,淄博市,淄川区,奥翔水产市场,,淄博,treat,1,购物服务,060000
B0FFG98EU5,银座商城(人民店),购物服务;商场;普通商场,060102,117.860457,36.504428,山东省,淄博市,博山区,青年路1号(金晶路与青年路交叉口东北50米),,淄博,treat,1,购物服务,060000
B021504LT8,中国财富陶瓷城,购物服务;家居建材市场;建材五金市场,060603,117.995751,36.748272,山东省,淄博市,淄川区,牛家村,,淄博,treat,1,购物服务,060000
B021503W0U,银座购物广场(淄川店),购物服务;商场;购物中心,060101,117.961902,36.649139,山东省,淄博市,淄川区,松龄路与淄城路交汇口路西柳泉正承广场,,淄博,treat,1,购物服务,060000
B0215048R6,银座购物广场(博山店),购物服务;商场;普通商场,060102,117.860767,36.494224,山东省,淄博市,博山区,中心路40号,,淄博,treat,1,购物服务,060000
B0K33A10Y4,佳沃(淄博)全球数智农食融合产业基地,购物服务;购物相关场所;购物相关场所,060000,118.07035,36.736963,山东省,淄博市,张店区,淄河大道7号,,淄博,treat,1,购物服务,060000
B02150495X,胜利沙发家具市场,购物服务;家居建材市场;家具城|购物服务;家居建材市场;家具建材综合市场,060602|060601,117.859938,36.785481,山东省,淄博市,周村区,周隆路与米河路交叉口西280米,,淄博,treat,1,购物服务,060000
B021500FAD,富丽商城,购物服务;商场;购物中心,060101,118.056526,36.805114,山东省,淄博市,张店区,共青团西路23号,,淄博,treat,1,购物服务,060000
B0FFHFR4E8,齐鲁国际塑化城,购物服务;家居建材市场;建材五金市场,060603,118.27632,36.828065,山东省,淄博市,临淄区,辛化路2158号,,淄博,treat,1,购物服务,060000
B021500FC6,特信商城,购物服务;商场;普通商场|公司企业;公司;公司,060102|170200,117.860326,36.496483,山东省,淄博市,博山区,沿河东路大街1号特信广场1层,,淄博,treat,1,购物服务,060000
B02150QNKO,新恒汇电子股份有限公司,公司企业;公司;机械电子|购物服务;购物相关场所;购物相关场所,170204|060000,118.091066,36.83495,山东省,淄博市,张店区,中润大道187号,,淄博,treat,1,购物服务,060000
B0FFLF6J9C,水晶街,购物服务;商场;普通商场|购物服务;特色商业街;特色商业街|地名地址信息;地名地址信息;地名地址信息,060102|061000|190000,118.003502,36.818816,山东省,淄博市,张店区,重庆路与林泽街交叉口南100米,,淄博,treat,1,购物服务,060000
B0G0VXOY8T,时光里,购物服务;综合市场;综合市场,060700,117.923366,36.830083,山东省,淄博市,周村区,成长西路与拼搏二路交叉口西320米,,淄博,treat,1,购物服务,060000
B0G0VXOY8T,时光里,购物服务;综合市场;综合市场,060700,117.923366,36.830083,山东省,淄博市,周村区,成长西路与拼搏二路交叉口西320米,,淄博,treat,1,购物服务,060000
B0JR9HK655,八大局文化街,购物服务;特色商业街;特色商业街,061000,118.065796,36.809902,山东省,淄博市,张店区,人民东路八大局北门南行50米右侧院内,,淄博,treat,1,购物服务,060000
B0FFG6QG26,新星商厦(商城西街),购物服务;商场;普通商场,060102,117.959333,36.647242,山东省,淄博市,淄川区,张博路大桥北,,淄博,treat,1,购物服务,060000
B02150R20Q,鲁中义乌国际商贸城,购物服务;商场;普通商场,060102,118.185521,36.192096,山东省,淄博市,沂源县,鲁山路与瑞阳大道交叉口往东600米,,淄博,treat,1,购物服务,060000
B02150Q56J,华盛商厦,购物服务;商场;普通商场,060102,117.829677,37.171987,山东省,淄博市,高青县,黄河路77号,,淄博,treat,1,购物服务,060000
B0FFH3AK38,淄川建材城月庄市场,购物服务;家居建材市场;建材五金市场|购物服务;综合市场;综合市场,060603|060700,118.007212,36.717475,山东省,淄博市,淄川区,建材城常鑫路2002-1号,,淄博,treat,1,购物服务,060000
B021500E13,铝城购物中心,购物服务;商场;购物中心,060101,118.045266,36.753116,山东省,淄博市,张店区,南定镇山铝花园路29号,,淄博,treat,1,购物服务,060000
B0FFJ2VV4Q,鲁中五金机电汽配城-中区,购物服务;家居建材市场;家居建材市场,060600,118.014456,36.783787,山东省,淄博市,张店区,复兴路与唐家山路交叉口西北300米,,淄博,treat,1,购物服务,060000
B02150QETL,大观园商场(振兴路),购物服务;特色商业街;特色商业街,061000,118.165418,36.184867,山东省,淄博市,沂源县,历山街道振兴路373号,,淄博,treat,1,购物服务,060000
B021503QF7,老华盛商场,购物服务;商场;普通商场,060102,117.830529,37.168815,山东省,淄博市,高青县,青城路39号华盛购物广场,,淄博,treat,1,购物服务,060000
B0FFJJR90M,利群时代(柳泉路店),购物服务;商场;普通商场,060102,118.047509,36.801921,山东省,淄博市,张店区,柳泉路29号,,淄博,treat,1,购物服务,060000
B0LDJ5W988,博山山头诚兴陶瓷经营部,购物服务;家居建材市场;建材五金市场,060603,117.877039,36.474285,山东省,淄博市,博山区,滑子路1号,,淄博,treat,1,购物服务,060000
B0FFJ0JMHY,银座商城(沂源店),购物服务;商场;普通商场,060102,118.155451,36.186046,山东省,淄博市,沂源县,南麻镇历山国际大厦北京路南,,淄博,treat,1,购物服务,060000
B0G3HH5IRM,鲁中五金机电汽配城(通力家园店),购物服务;家居建材市场;建材五金市场|汽车服务;汽车配件销售;汽车配件销售,060603|010800,118.014521,36.783633,山东省,淄博市,张店区,傅家镇昌国路鲁中五金机电汽配城中区,,淄博,treat,1,购物服务,060000
B0JKBAKINC,同古大集,购物服务;购物相关场所;购物相关场所,060000,118.159554,36.554618,山东省,淄博市,淄川区,淄中路与006县道交叉口南60米,,淄博,treat,1,购物服务,060000
B021504I2R,天隆广场,购物服务;商场;购物中心,060101,117.86096,36.503301,山东省,淄博市,博山区,城西街道青年路1号,,淄博,treat,1,购物服务,060000
B0FFIQZG1V,周村长行农贸市场,购物服务;综合市场;农副产品市场,060703,117.854975,36.820252,山东省,淄博市,周村区,恒星路附近,,淄博,treat,1,购物服务,060000
B0FFIBXEJP,南营综合市场,购物服务;综合市场;综合市场,060700,118.067299,36.85016,山东省,淄博市,张店区,兰雁大道与华菁园西路交叉口西320米,,淄博,treat,1,购物服务,060000
B0JAXD21CM,义乌小商品城,购物服务;购物相关场所;购物相关场所,060000,118.022126,36.824399,山东省,淄博市,张店区,城东五街25号,,淄博,treat,1,购物服务,060000
B0IBX7OKJT,东岳熙悦里,购物服务;特色商业街;特色商业街,061000,118.07559,36.945649,山东省,淄博市,桓台县,桓台大道与柳泉北路交叉口西220米,,淄博,treat,1,购物服务,060000
B02150QIEI,中国周村皮草城,购物服务;服装鞋帽皮具店;服装鞋帽皮具店,061100,117.940653,36.787334,山东省,淄博市,周村区,周隆路7777号,,淄博,treat,1,购物服务,060000
B02150QG4K,茂业百货(泰客荣店),购物服务;商场;购物中心,060101,118.302802,36.813754,山东省,淄博市,临淄区,桓公路101号,,淄博,treat,1,购物服务,060000
B0FFI2FWGF,联华·盛德美生活广场(淄博店),购物服务;超级市场;超市,060400,117.989055,36.801376,山东省,淄博市,张店区,和平路与北京路交叉口向西100米路北,,淄博,treat,1,购物服务,060000
B02150RTZS,茂业天地(暂停营业),购物服务;商场;购物中心,060101,118.050853,36.807477,山东省,淄博市,张店区,柳泉路152号,,淄博,treat,1,购物服务,060000
B021504211,莲池利群购物广场(暂停营业),购物服务;商场;购物中心,060101,118.036154,36.831436,山东省,淄博市,张店区,北西五路25号,,淄博,treat,1,购物服务,060000
B0IUCAOCWZ,振华商厦,购物服务;商场;购物中心,060101,118.056051,36.80162,山东省,淄博市,张店区,城中西内环路与西一路交叉口西北80米,,淄博,treat,1,购物服务,060000
B0FFGY3A65,富尔玛国际家居,购物服务;家居建材市场;家具城,060602,118.026557,36.814842,山东省,淄博市,张店区,人民西路120号,,淄博,treat,1,购物服务,060000
B021500F9E,桓台百货大楼,购物服务;商场;普通商场,060102,118.105923,36.958434,山东省,淄博市,桓台县,张北路32号,,淄博,treat,1,购物服务,060000
B0FFH65TQG,红星美凯龙全球家居生活Mall,购物服务;家居建材市场;家具城,060602,117.862165,36.787227,山东省,淄博市,周村区,周隆路2399号,,淄博,treat,1,购物服务,060000
B0FFL5X8AK,常青园便民市场,购物服务;综合市场;农副产品市场,060703,118.03729,36.806015,山东省,淄博市,张店区,西四路西街与南西五路交叉口东20米,,淄博,treat,1,购物服务,060000
B0FFFDIF48,亿丰商场,购物服务;商场;普通商场,060102,118.002092,36.816668,山东省,淄博市,张店区,重庆路亿丰大厦1-3层,,淄博,treat,1,购物服务,060000
B0FFIBXEIX,奥翔水产市场,购物服务;综合市场;水产海鲜市场,060706,117.945207,36.649783,山东省,淄博市,淄川区,松龄西路与孝水路交叉口东南220米,,淄博,treat,1,购物服务,060000
B021502W41,潘成装饰材料城(联通路店),购物服务;家居建材市场;建材五金市场,060603,118.064719,36.827671,山东省,淄博市,张店区,联通路6-6号,,淄博,treat,1,购物服务,060000
B0GDCB7ZB1,秀水地下商城(振华商厦店),购物服务;商场;普通商场,060102,118.055741,36.80212,山东省,淄博市,张店区,振华商厦,,淄博,treat,1,购物服务,060000
B0FFI6UTAL,九级便民市场,购物服务;花鸟鱼虫市场;花卉市场|购物服务;综合市场;农副产品市场,060501|060703,118.02033,36.828848,山东省,淄博市,张店区,联通路世纪花园南门对过,,淄博,treat,1,购物服务,060000
B021503W8N,淄博商厦(博山店),购物服务;商场;普通商场|购物服务;家电电子卖场;综合家电商场,060102|060301,117.857579,36.511671,山东省,淄博市,博山区,白虎山西路8号,,淄博,treat,1,购物服务,060000
B0FFHE91QI,亿客家购物广场,购物服务;商场;普通商场,060102,118.180858,36.200662,山东省,淄博市,沂源县,新城路附近,,淄博,treat,1,购物服务,060000
B02150QP7M,洪沟五金机电城,购物服务;家居建材市场;建材五金市场,060603,118.075571,36.785841,山东省,淄博市,张店区,杏园东路66号甲7号,,淄博,treat,1,购物服务,060000
B0FFL4A1Z5,银泰商城,购物服务;商场;普通商场,060102,117.851987,36.798059,山东省,淄博市,周村区,东街301号,,淄博,treat,1,购物服务,060000
B0G0UDM2GF,特色街区·西冶街,购物服务;特色商业街;特色商业街,061000,117.858374,36.497174,山东省,淄博市,博山区,沿河西路与大街交叉口西120米,,淄博,treat,1,购物服务,060000
B021504693,鲁中宠物市场,购物服务;花鸟鱼虫市场;宠物市场,060502,118.070157,36.816499,山东省,淄博市,张店区,华光路25号,,淄博,treat,1,购物服务,060000
B0FFIBXEWQ,佳惠新天地生活广场,购物服务;商场;普通商场,060102,118.187319,36.192233,山东省,淄博市,沂源县,鲁山路与润生路交汇处鲁中义务商贸城东区,,淄博,treat,1,购物服务,060000
B0215030RX,政联装饰材料城,购物服务;家居建材市场;建材五金市场,060603,118.050458,36.776967,山东省,淄博市,张店区,张南路87号,,淄博,treat,1,购物服务,060000
B02150QR5B,鲁中家具城,购物服务;家居建材市场;家具城,060602,118.042899,36.803976,山东省,淄博市,张店区,商场西街121号,,淄博,treat,1,购物服务,060000
B0I1NG3R1J,盛乡源综合农贸市场,购物服务;综合市场;农副产品市场,060703,118.010975,36.783867,山东省,淄博市,张店区,昌国西路115号,,淄博,treat,1,购物服务,060000
B021500F9F,桓台商厦,购物服务;商场;普通商场,060102,118.105225,36.959466,山东省,淄博市,桓台县,张北路2911号,,淄博,treat,1,购物服务,060000
B0IUXSGEMI,荟聚·星漾里,购物服务;商场;购物中心,060101,118.300029,36.81432,山东省,淄博市,临淄区,槐荫路与桓公路交叉口西北80米,,淄博,treat,1,购物服务,060000
B0G0RUE1PA,棠悦广场,购物服务;商场;商场,060100,118.324647,36.83196,山东省,淄博市,临淄区,齐都镇遄台路220号,,淄博,treat,1,购物服务,060000
B0FFJCRTWM,银座购物广场,购物服务;商场;购物中心|购物服务;商场;普通商场,060101|060102,118.033203,36.849245,山东省,淄博市,张店区,高新区鲁泰大道9号淄博银泰城西侧,,淄博,treat,1,购物服务,060000
B0FFF63T91,茂业百货(商城店),购物服务;商场;购物中心,060101,118.319772,36.811152,山东省,淄博市,临淄区,遄台路5号,,淄博,treat,1,购物服务,060000
B0G397QLHB,淄博诺尔漫口腔医疗有限公司张店水晶街口腔门诊部(水晶街机构),购物服务;服装鞋帽皮具店;服装鞋帽皮具店,061100,118.006773,36.816073,山东省,淄博市,张店区,马尚街道办事处人民路与重庆路交汇处水晶街H座4层,,淄博,treat,1,购物服务,060000
B0HUCRURKQ,山东狮王陶瓷有限公司,购物服务;家居建材市场;建材五金市场|公司企业;公司;公司,060603|170200,117.988524,36.745717,山东省,淄博市,淄川区,淄河大道1号,,淄博,treat,1,购物服务,060000
B02150QPD3,中国北方(淄博)不锈钢市场,购物服务;家居建材市场;建材五金市场,060603,117.869834,36.784157,山东省,淄博市,周村区,周隆路2908号14-19,,淄博,treat,1,购物服务,060000
B0HRRSSO8O,鲁中品牌联盟,购物服务;家居建材市场;建材五金市场,060603,118.020386,36.784953,山东省,淄博市,张店区,昌国西路103号,,淄博,treat,1,购物服务,060000
B02150Q7N9,百姓商厦,购物服务;商场;普通商场|购物服务;服装鞋帽皮具店;品牌鞋店,060102|061102,117.859366,36.497653,山东省,淄博市,博山区,西冶街南首1号,,淄博,treat,1,购物服务,060000
B0LUXDHV0A,海圃生鲜超市,购物服务;超级市场;超市,060400,118.032036,36.796781,山东省,淄博市,张店区,和平路27甲号一层,,淄博,treat,1,购物服务,060000
B0FFL5DI5J,鱼盐里购物广场,购物服务;购物相关场所;购物相关场所,060000,118.291222,36.834014,山东省,淄博市,临淄区,鱼盐里动漫城内(南侧),,淄博,treat,1,购物服务,060000
B02150QA5B,东方购物广场(沂源店),购物服务;商场;购物中心,060101,118.160871,36.184001,山东省,淄博市,沂源县,历山路49号,,淄博,treat,1,购物服务,060000
B02150QI5Q,临淄区齐园农贸市场,购物服务;综合市场;农副产品市场,060703,118.295642,36.806921,山东省,淄博市,临淄区,大顺路18-12附近,,淄博,treat,1,购物服务,060000
B0FFFPCD4B,迪卡侬(银泰城店),购物服务;体育用品店;体育用品店,060900,118.033744,36.848747,山东省,淄博市,张店区,四宝山街道鲁泰大道9号银泰城一楼,,淄博,treat,1,购物服务,060000
B021504HF9,吉祥路商业街,购物服务;特色商业街;特色商业街,061000,117.97323,36.656267,山东省,淄博市,淄川区,淄城路287号,,淄博,treat,1,购物服务,060000
B0FFG7ZG3X,王府井大街(淄博王府井广场店),购物服务;超级市场;北京华联,060404,118.051974,36.804646,山东省,淄博市,张店区,共青团西路,,淄博,treat,1,购物服务,060000
B0FFGOFBE3,沣水生活广场,购物服务;综合市场;农副产品市场,060703,118.092496,36.770362,山东省,淄博市,张店区,昌国路良乡物流东1000米,,淄博,treat,1,购物服务,060000
B02150QMCQ,西班牙风情街,购物服务;特色商业街;特色商业街,061000,118.025266,36.82589,山东省,淄博市,张店区,马尚街道玉龙商街86号,,淄博,treat,1,购物服务,060000
B0FFFOH8LF,华为授权服务中心(明清街),购物服务;家电电子卖场;手机销售|生活服务;维修站点;维修站点,060305|071200,118.044447,36.825596,山东省,淄博市,张店区,科苑街道张桓路6-24号(明清街丽景翠苑东侧),,淄博,treat,1,购物服务,060000
B0FFGIUXSX,悦庄大集,购物服务;综合市场;综合市场,060700,118.253066,36.206369,山东省,淄博市,沂源县,中心路与朝阳路交叉口西40米,,淄博,treat,1,购物服务,060000
B021502W3Y,潘成粮油批发市场,购物服务;综合市场;农副产品市场,060703,118.065978,36.828991,山东省,淄博市,张店区,金晶大道247号,,淄博,treat,1,购物服务,060000
B0FFGNF1F0,盛达商业广场,购物服务;商场;购物中心,060101,117.862789,36.504028,山东省,淄博市,博山区,西冶街202号,,淄博,treat,1,购物服务,060000
B0G0YCLPY4,山东博发水产蔬菜批发交易中心,购物服务;综合市场;水产海鲜市场,060706,117.997775,36.792185,山东省,淄博市,张店区,王舍路与北京路交汇处往东700米路北,,淄博,treat,1,购物服务,060000
B021500E32,大街市场(中心路),购物服务;综合市场;农副产品市场,060703,117.857981,36.493811,山东省,淄博市,博山区,大街小区,,淄博,treat,1,购物服务,060000
B021500E27,温州商厦,购物服务;商场;普通商场,060102,117.958171,36.642203,山东省,淄博市,淄川区,将军路街道留仙湖路3号,,淄博,treat,1,购物服务,060000
B0FFF74K3B,格莱美PARTY·KTV,体育休闲服务;娱乐场所;棋牌室|体育休闲服务;娱乐场所;迪厅|体育休闲服务;娱乐场所;KTV|购物服务;服装鞋帽皮具店;服装鞋帽皮具店,080306|080303|080302|061100,118.047003,36.80688,山东省,淄博市,张店区,共青团西路95号蓝乾大厦主楼2-3层,,淄博,treat,1,购物服务,060000
B0215012B0,淄博吉星装饰材料城,购物服务;家居建材市场;建材五金市场,060603,118.055809,36.799534,山东省,淄博市,张店区,新村西路8号,,淄博,treat,1,购物服务,060000
B021504CII,王府井商业城,购物服务;综合市场;综合市场,060700,117.830879,37.172743,山东省,淄博市,高青县,中心路甲10号正南方向64米,,淄博,treat,1,购物服务,060000
B0FFHMFEAT,山东五洲国际窗帘城,购物服务;家居建材市场;布艺市场,060605,117.863241,36.785348,山东省,淄博市,周村区,丝绸路街道309号,,淄博,treat,1,购物服务,060000
B0FFHMFEAT,山东五洲国际窗帘城,购物服务;家居建材市场;布艺市场,060605,117.863241,36.785348,山东省,淄博市,周村区,丝绸路街道309号,,淄博,treat,1,购物服务,060000
B0FFG2SHCP,山东张店农村商业银行(营业部),金融保险服务;银行;农村商业银行|购物服务;购物相关场所;购物相关场所,160121|060000,118.057487,36.832725,山东省,淄博市,张店区,柳泉路256号,,淄博,treat,1,购物服务,060000
B021504DBF,惠仟佳购物街,购物服务;特色商业街;特色商业街,061000,118.089464,36.959845,山东省,淄博市,桓台县,中心大街惠仟佳公交站北100米,,淄博,treat,1,购物服务,060000
B0JUN57Y94,孙娄大集,购物服务;购物相关场所;购物相关场所,060000,118.278603,36.83777,山东省,淄博市,临淄区,辛化路1099号,,淄博,treat,1,购物服务,060000
B021504BTF,玉龙商场,购物服务;商场;普通商场,060102,118.295926,36.814766,山东省,淄博市,临淄区,齐园路33号,,淄博,treat,1,购物服务,060000
B0FFFDFQIW,银座超市(淄博银座商城店),购物服务;超级市场;超市,060400,118.050484,36.805618,山东省,淄博市,张店区,柳泉路128号银座商城B1,,淄博,treat,1,购物服务,060000
B02150QP87,周村不锈钢市场,购物服务;家居建材市场;建材五金市场,060603,117.865951,36.786721,山东省,淄博市,周村区,周隆路2999号,,淄博,treat,1,购物服务,060000
B0LB2APT5U,美嘉汇陶瓷琉璃工厂店,购物服务;家居建材市场;建材五金市场,060603,118.021212,36.825121,山东省,淄博市,张店区,华光路华川小商品城二期二楼西区5003,,淄博,treat,1,购物服务,060000
B02150Q9JW,鑫龙佰汇街(桓台县农业局东),购物服务;特色商业街;特色商业街,061000,118.104736,36.958664,山东省,淄博市,桓台县,中心大街41号(桓台县农业局东),,淄博,treat,1,购物服务,060000
B0215048QG,房家农贸市场,购物服务;综合市场;农副产品市场,060703,118.01901,36.791126,山东省,淄博市,张店区,阳光地带25号楼1单元401号,,淄博,treat,1,购物服务,060000
B0G27UDGFH,唐庄家具批发中心MALL品牌工厂直营,购物服务;家居建材市场;家具城,060602,117.858184,36.787731,山东省,淄博市,周村区,周隆路2299号,,淄博,treat,1,购物服务,060000
B0FFG3BL4S,Apple授权专营店(张店万象汇店),购物服务;家电电子卖场;手机销售|购物服务;家电电子卖场;数码电子,060305|060306,118.061105,36.801819,山东省,淄博市,张店区,金晶大道66号万象汇商场一层L136,,淄博,treat,1,购物服务,060000
B0FFL64D1W,淄博西街继和果品批发市场,购物服务;综合市场;果品市场,060704,118.279214,36.841297,山东省,淄博市,临淄区,稷下街道S233(辛化路)与309国道交叉口,,淄博,treat,1,购物服务,060000
B0FFKR7R0W,德银五金淄博总公司,购物服务;家居建材市场;建材五金市场|公司企业;公司企业;公司企业,060603|170000,118.072206,36.787541,山东省,淄博市,张店区,洪沟西街与杏园东路交汇处东北角,,淄博,treat,1,购物服务,060000
B0FFHWINEN,名集百福,购物服务;超级市场;超市|购物服务;专卖店;专营店,060400|061200,118.01956,36.8143,山东省,淄博市,张店区,马尚镇人民西路185号凯瑞碧园北门往东约200米,,淄博,treat,1,购物服务,060000
B0215011FF,福王家居广场,购物服务;家居建材市场;家具城|公司企业;公司;广告装饰,060602|170201,117.888017,36.788139,山东省,淄博市,周村区,周隆路4567号,,淄博,treat,1,购物服务,060000
B0LAHCIQ2G,淄川西关大集,购物服务;购物相关场所;购物相关场所,060000,117.943053,36.647342,山东省,淄博市,淄川区,孝水路与松龄西路交叉口南480米,,淄博,treat,1,购物服务,060000
B0LD2AJLNQ,傅家大集,购物服务;购物相关场所;购物相关场所,060000,117.999641,36.761874,山东省,淄博市,张店区,华福大道143号,,淄博,treat,1,购物服务,060000
B0FFHIL4XM,泰东生活广场,购物服务;商场;购物中心,060101,118.330347,36.816999,山东省,淄博市,临淄区,闻韶街道晏婴路489号,,淄博,treat,1,购物服务,060000
B0H2671TYM,中国陶瓷科技城(淄博国际商贸城店),购物服务;家居建材市场;建材五金市场,060603,117.99751,36.788366,山东省,淄博市,张店区,昌国西路88号(傅家镇路段),,淄博,treat,1,购物服务,060000
B0IDJSVZ8G,大润发(福园店),购物服务;超级市场;超市|地名地址信息;热点地名;热点地名,060400|190700,118.027806,36.808057,山东省,淄博市,张店区,世纪路与共青团路交叉口东南角的福园22-179-181号商业房,,淄博,treat,1,购物服务,060000
B0KK7XK35F,盛德美超市(淄博鑫马吾悦广场店),购物服务;超级市场;超市,060400,118.000686,36.82423,山东省,淄博市,张店区,华光路288号淄博鑫马吾悦广场,,淄博,treat,1,购物服务,060000
B0FFFTE42H,美博·嘉汇文具,购物服务;文化用品店;文化用品店|科教文化服务;文艺团体;文艺团体,060800|141000,118.001802,36.804434,山东省,淄博市,张店区,重庆路与新村西路交叉口,,淄博,treat,1,购物服务,060000
B0FFJTXL1J,衣品汇服装批发城(西二路店),购物服务;服装鞋帽皮具店;服装鞋帽皮具店,061100,118.054599,36.802679,山东省,淄博市,张店区,美食街与西二路30号,,淄博,treat,1,购物服务,060000
B0FFHNIX3P,兆佳花卉,购物服务;花鸟鱼虫市场;花卉市场|公司企业;农林牧渔基地;其它农林牧渔基地,060501|170400,118.008833,36.772075,山东省,淄博市,张店区,海岱大道与南京路交叉口东北约100米,,淄博,treat,1,购物服务,060000
B0LUJC9F9K,京东奥莱(淄博利群广场店),购物服务;服装鞋帽皮具店;服装鞋帽皮具店,061100,118.060524,36.800448,山东省,淄博市,张店区,商场东路2号利群购物广场1-2层,,淄博,treat,1,购物服务,060000
B0ID77PK43,美都汇(淄博银泰城店),购物服务;服装鞋帽皮具店;服装鞋帽皮具店,061100,118.035135,36.848535,山东省,淄博市,张店区,鲁泰大道9号淄博银泰城2楼02113号商铺,,淄博,treat,1,购物服务,060000
B02150QPFB,山东蓝天家具有限公司,购物服务;家居建材市场;家具城|公司企业;公司;公司,060602|170200,117.819662,36.792015,山东省,淄博市,周村区,西外环路1237号,,淄博,treat,1,购物服务,060000
B021503THL,管庄蔬菜批发市场,购物服务;综合市场;蔬菜市场,060705,117.895391,36.799109,山东省,淄博市,周村区,北郊镇管庄村,,淄博,treat,1,购物服务,060000
B0I6B12U9M,义乌小商品(鲁中义乌国际商贸城店),购物服务;综合市场;小商品市场,060701,118.186256,36.19252,山东省,淄博市,沂源县,鲁山路鲁中义乌国际商贸城,,淄博,treat,1,购物服务,060000
B021500FA0,喜乐佳,购物服务;商场;普通商场,060102,118.100012,36.958738,山东省,淄博市,桓台县,索镇大街511号,,淄博,treat,1,购物服务,060000
B021500FC8,金太阳商场,购物服务;家电电子卖场;手机销售|购物服务;商场;普通商场,060305|060102,118.166734,36.185648,山东省,淄博市,沂源县,振兴路41号,,淄博,treat,1,购物服务,060000
B021504EN7,太公市场,购物服务;综合市场;综合市场,060700,118.321254,36.808162,山东省,淄博市,临淄区,桓公路346号,,淄博,treat,1,购物服务,060000
B0FFHWQJ8O,世纪东方购物中心,购物服务;商场;购物中心,060101,118.162663,36.185787,山东省,淄博市,沂源县,[],,淄博,treat,1,购物服务,060000
B0FFLEE0XD,淄博旧货市场,购物服务;综合市场;综合市场,060700,118.090191,36.771688,山东省,淄博市,张店区,昌国东路197号市公交东站东邻500米路北淄博广大家居酒店用品批发市场,,淄博,treat,1,购物服务,060000
B0LDKHGU81,八大局·这有局儿,购物服务;特色商业街;特色商业街|餐饮服务;餐饮相关场所;餐饮相关,061000|050000,118.065622,36.810226,山东省,淄博市,张店区,人民东路6号,,淄博,treat,1,购物服务,060000
B021503VP0,淄川装饰材料城,购物服务;家居建材市场;建材五金市场,060603,117.97713,36.659289,山东省,淄博市,淄川区,淄城路183号,,淄博,treat,1,购物服务,060000
B0JKL73K0J,MUJI无印良品(淄博万象汇店),购物服务;购物相关场所;购物相关场所,060000,118.060499,36.801815,山东省,淄博市,张店区,金晶大道66号淄博万象汇2层L213,,淄博,treat,1,购物服务,060000
B0JG6MLQLV,周村步行街店,购物服务;购物相关场所;购物相关场所,060000,117.852726,36.799049,山东省,淄博市,周村区,东街76号院,,淄博,treat,1,购物服务,060000
B02150R0L9,仟佰汇,购物服务;商场;普通商场|购物服务;超级市场;超市,060102|060400,117.962278,36.646522,山东省,淄博市,淄川区,般阳路1号,,淄博,treat,1,购物服务,060000
B0KKBDKMHY,银座(天齐店),购物服务;商场;购物中心,060101,118.332074,36.813606,山东省,淄博市,临淄区,稷下街道天齐路200甲方正2009南区B1层,,淄博,treat,1,购物服务,060000
B0K0CO9PCD,鲁泰综合(旧货)市场,购物服务;综合市场;旧货市场,060702,118.088639,36.844747,山东省,淄博市,张店区,鲁泰大道111号,,淄博,treat,1,购物服务,060000
B02150QKZ0,奥华购物中心,购物服务;商场;购物中心,060101,118.233796,36.737202,山东省,淄博市,临淄区,十化建建设中路5号,,淄博,treat,1,购物服务,060000
B02150Q9CK,金周沙发材料市场(北门街),购物服务;家居建材市场;家具建材综合市场|购物服务;家居建材市场;布艺市场|购物服务;家居建材市场;建材五金市场,060601|060605|060603,117.841392,36.812467,山东省,淄博市,周村区,周长路31号金周沙发材料市场(北门街),,淄博,treat,1,购物服务,060000
B0FFGX4WW4,SM百货(SM广场店),购物服务;超级市场;超市,060400,117.96372,36.643536,山东省,淄博市,淄川区,般阳路8号,,淄博,treat,1,购物服务,060000
B02150QMPE,新大棚街,购物服务;综合市场;综合市场,060700,118.296465,36.807946,山东省,淄博市,临淄区,牛山路安平生活区,,淄博,treat,1,购物服务,060000
B0FFKG54HJ,华为授权服务中心(中关村科技城),生活服务;维修站点;维修站点|购物服务;购物相关场所;购物相关场所,071200|060000,118.032302,36.808693,山东省,淄博市,张店区,公园街道北西六路1号中关村科技城A-07室,,淄博,treat,1,购物服务,060000
B0KU5UO3R6,同福爆品仓(淄博店),购物服务;购物相关场所;购物相关场所,060000,118.099838,36.83146,山东省,淄博市,张店区,中润大道201号,,淄博,treat,1,购物服务,060000
B0FFL4BL7R,家家悦超市(淄博华光路店),购物服务;超级市场;超市|购物服务;便民商店/便利店;便民商店/便利店,060400|060200,118.072517,36.816607,山东省,淄博市,张店区,华光路北东三路213号,,淄博,treat,1,购物服务,060000
B0LUBUJAYL,淄博万有(经开仓),购物服务;特殊买卖场所;特殊买卖场所,061300,117.998807,36.765534,山东省,淄博市,张店区,傅家镇重庆路与傅家路路口东北角南数第6、7间营业房,,淄博,treat,1,购物服务,060000
B0LU2APCAW,KKV恒太城,购物服务;购物相关场所;购物相关场所,060000,117.983495,36.822913,山东省,淄博市,张店区,马尚街道办事处华光路331号淄博超级恒太城F1层1F-003-005-006KKV店,,淄博,treat,1,购物服务,060000
B0HA9S7NPU,凤阳家居体验馆(工厂店),购物服务;家居建材市场;家居建材市场|公司企业;公司;公司,060600|170200,117.838228,36.811391,山东省,淄博市,周村区,凤阳路138号,,淄博,treat,1,购物服务,060000
B0FFJ79V3C,新世界材料装饰城(新世界装饰材料城店),购物服务;家居建材市场;建材五金市场,060603,118.099259,36.941814,山东省,淄博市,桓台县,张北路873号,,淄博,treat,1,购物服务,060000
B021502UOE,开元文化大世界(西二路店),购物服务;专卖店;古玩字画店,061201,118.054722,36.801683,山东省,淄博市,张店区,西二路110号,,淄博,treat,1,购物服务,060000
B0FFF027N9,房家艺术村,购物服务;特色商业街;特色商业街,061000,118.023414,36.792464,山东省,淄博市,张店区,植物园西门对过康乐嘉园拱门内100米路南,,淄博,treat,1,购物服务,060000
B0FFF3NQCH,方正帝王商场,购物服务;商场;普通商场,060102,118.299215,36.813297,山东省,淄博市,临淄区,桓公路208号,,淄博,treat,1,购物服务,060000
B02150RLH1,巴黎假日步行街,购物服务;特色商业街;特色商业街,061000,117.853106,36.796947,山东省,淄博市,周村区,东街与中和街交叉口东南100米,,淄博,treat,1,购物服务,060000
B0FFFS6AEC,银泰·金街,购物服务;商场;商场,060100,118.03485,36.848682,山东省,淄博市,张店区,鲁泰大道9号(鲁泰大道与西五路交汇处),,淄博,treat,1,购物服务,060000
B0L2BUKQXV,银泰百货(名尚银泰城店),购物服务;个人用品/化妆品店;其它个人用品店,061400,118.035825,36.848275,山东省,淄博市,张店区,鲁泰大道9号银泰城1F层,,淄博,treat,1,购物服务,060000
B0FFKHO4UR,旧货交易便民市场,购物服务;综合市场;旧货市场,060702,118.081324,36.812039,山东省,淄博市,张店区,宝沣路与潘南路交叉口东80米,,淄博,treat,1,购物服务,060000
B0H34A1WG3,海汇电器(新村西路店),购物服务;家电电子卖场;家电电子卖场|公司企业;公司;公司,060300|170200,118.040539,36.801261,山东省,淄博市,张店区,新村西路99号东方商务F1层,,淄博,treat,1,购物服务,060000
B0FFGHRILW,铭辰生活广场,购物服务;超级市场;超市,060400,118.092622,36.770385,山东省,淄博市,张店区,铭辰百货东南门旁,,淄博,treat,1,购物服务,060000
B0L3JMD9MR,南石大集,购物服务;购物相关场所;购物相关场所,060000,118.036137,36.866397,山东省,淄博市,张店区,北西六路与裕民路交叉口北120米,,淄博,treat,1,购物服务,060000
B0FFK452AX,周村国际家居博览城,购物服务;家居建材市场;家居建材市场,060600,117.860275,36.786075,山东省,淄博市,周村区,南郊镇周隆路2548号胜利沙发家具市场,,淄博,treat,1,购物服务,060000
B0HAYR05P2,白虎山商业街,购物服务;特色商业街;特色商业街,061000,117.861215,36.509503,山东省,淄博市,博山区,白虎山路与白虎山东路交叉口西20米,,淄博,treat,1,购物服务,060000
B021503XGU,石炭坞向阳商业街(向阳小区店),购物服务;特色商业街;特色商业街,061000,117.893631,36.458442,山东省,淄博市,博山区,八陡镇文姜路花园酒店附近,,淄博,treat,1,购物服务,060000
B0FFGBO2GO,两城建材市场,购物服务;家居建材市场;家具建材综合市场,060601,118.195436,36.191193,山东省,淄博市,沂源县,南麻镇,,淄博,treat,1,购物服务,060000
B0HKCZ62UJ,名集百福仓储店,购物服务;超级市场;超市,060400,118.060548,36.818906,山东省,淄博市,张店区,华光路47号,,淄博,treat,1,购物服务,060000
B0HRVL55T7,家家悦(联通路店),购物服务;超级市场;超市,060400,118.010705,36.82892,山东省,淄博市,张店区,宏程·国际广场,,淄博,treat,1,购物服务,060000
B0HUX5KSJR,淄博盛和国际家居博览中心,购物服务;家居建材市场;家具城|商务住宅;商务住宅相关;商务住宅相关|生活服务;生活服务场所;生活服务场所,060602|120000|070000,117.86374,36.787529,山东省,淄博市,周村区,米河路与周隆路交叉口,,淄博,treat,1,购物服务,060000
B021504IBZ,报恩寺街,购物服务;特色商业街;特色商业街,061000,117.86036,36.492019,山东省,淄博市,博山区,峨嵋山路与峨眉山东路交叉口西20米,,淄博,treat,1,购物服务,060000
B0L14O2XU6,丰阳大超市(淄博店),购物服务;超级市场;超市,060400,118.053854,36.798598,山东省,淄博市,张店区,西二路与新村西路辅路交叉口东南80米,,淄博,treat,1,购物服务,060000
B0FFI7K88B,博山泵都机电广场,购物服务;家居建材市场;建材五金市场,060603,117.870922,36.517495,山东省,淄博市,博山区,颜北路12号,,淄博,treat,1,购物服务,060000
B0G1393BD1,Apple授权专营店(富力万达店),购物服务;家电电子卖场;手机销售,060305,118.010034,36.838603,山东省,淄博市,张店区,中润大道17号富力万达广场一层1038,,淄博,treat,1,购物服务,060000
B021503Y98,百货大楼(振兴路),购物服务;商场;普通商场,060102,118.169393,36.184316,山东省,淄博市,沂源县,百货大楼1楼,,淄博,treat,1,购物服务,060000
B021504LJJ,淄博市体育中心,体育休闲服务;运动场馆;综合体育馆,080101,117.986362,36.813229,山东省,淄博市,张店区,人民西路321号,,淄博,treat,1,住宿服务,080000
B0FFHEGSH2,牛记庵古村落,体育休闲服务;度假疗养场所;度假村|风景名胜;风景名胜;风景名胜,080401|110200,117.808905,36.579246,山东省,淄博市,淄川区,昆仑镇牛记庵,,淄博,treat,1,住宿服务,080000
B0FFKEYPSN,淄博大剧院,体育休闲服务;体育休闲服务场所;体育休闲服务场所,080000,117.988851,36.825988,山东省,淄博市,张店区,心环东路与文二路交叉口西南200米,,淄博,treat,1,住宿服务,080000
B0KAOR03T4,月半湾星空露营地,体育休闲服务;休闲场所;露营地,080504,117.881018,36.690988,山东省,淄博市,周村区,文昌湖旅游度假区滨湖沙滩停车场东南100米,,淄博,treat,1,住宿服务,080000
B0I3HH643M,千亩园农场,体育休闲服务;休闲场所;休闲场所,080500,117.928038,37.076005,山东省,淄博市,桓台县,马桥镇北岔村岔河大桥东北约146米,,淄博,treat,1,住宿服务,080000
B021504LJI,淄博市体育中心体育场,体育休闲服务;运动场馆;综合体育馆,080101,117.98856,36.813629,山东省,淄博市,张店区,人民西路321号,,淄博,treat,1,住宿服务,080000
B0LDFLYG2B,虎头崖空中草原,体育休闲服务;体育休闲服务场所;体育休闲服务场所,080000,117.796764,36.50718,山东省,淄博市,博山区,西域城路101号甲13号,,淄博,treat,1,住宿服务,080000
B021504IB8,姚家峪生态旅游度假区,体育休闲服务;度假疗养场所;度假村|风景名胜;风景名胜相关;旅游景点,080401|110000,117.825369,36.494135,山东省,淄博市,博山区,西过境路路西,,淄博,treat,1,住宿服务,080000
B02150Q72A,山铝体育馆,体育休闲服务;运动场馆;综合体育馆,080101,118.044187,36.755264,山东省,淄博市,张店区,南定五公里路1号,,淄博,treat,1,住宿服务,080000
B021504DKO,齐都体育城,体育休闲服务;运动场馆;综合体育馆|体育休闲服务;运动场馆;足球场,080101|080105,118.300503,36.827581,山东省,淄博市,临淄区,临淄大道849号,,淄博,treat,1,住宿服务,080000
B0JR3SFGB1,唐庄亲子乐园,体育休闲服务;休闲场所;游乐场,080501,118.026479,36.822977,山东省,淄博市,张店区,世纪路与华光路路口北唐庄酒店1楼,,淄博,treat,1,住宿服务,080000
B0JRNC82YR,归园·松鼠部落,体育休闲服务;娱乐场所;娱乐场所,080300,118.135175,36.823291,山东省,淄博市,张店区,四宝山街道办事处军屯村归园•松鼠部落,,淄博,treat,1,住宿服务,080000
B0FFHN2T0S,朱水湾旅游度假村,体育休闲服务;度假疗养场所;度假村,080401,118.08251,36.582809,山东省,淄博市,淄川区,寨里镇朱水湾村村委南200米,,淄博,treat,1,住宿服务,080000
B0LR41PX52,万普斯竞速乐园,体育休闲服务;体育休闲服务场所;体育休闲服务场所,080000,118.085011,36.859764,山东省,淄博市,张店区,民祥北路7号,,淄博,treat,1,住宿服务,080000
B02150QMXC,般阳生态园,体育休闲服务;休闲场所;采摘园|餐饮服务;中餐厅;中餐厅,080503|050100,117.993401,36.6446,山东省,淄博市,淄川区,松龄东路278号(鲁泰纺织东),,淄博,treat,1,住宿服务,080000
B0FFG6TRIL,高青御泉汤温泉度假村酒店,体育休闲服务;度假疗养场所;度假村,080401,117.865512,37.164041,山东省,淄博市,高青县,高苑东路6号,,淄博,treat,1,住宿服务,080000
B0FFFP0IG1,淄博剧院,体育休闲服务;影剧院;剧场,080603,118.059091,36.806054,山东省,淄博市,张店区,共青团西路2号,,淄博,treat,1,住宿服务,080000
B0FFMBF1YL,万达影城(富力万达广场店),体育休闲服务;影剧院;电影院,080601,118.009714,36.83874,山东省,淄博市,张店区,房镇镇中润大道17号富力万达广场四楼西南角,,淄博,treat,1,住宿服务,080000
B02150QHZZ,般阳山庄,住宿服务;住宿服务相关;住宿服务相关|体育休闲服务;休闲场所;休闲场所,100000|080500,117.989255,36.643572,山东省,淄博市,淄川区,松龄东路258号,,淄博,treat,1,住宿服务,080000
B0K32K46P0,淄博市妇女儿童活动中心,体育休闲服务;休闲场所;休闲场所,080500,117.986225,36.826325,山东省,淄博市,张店区,心环西路与华光路交叉口东北260米,,淄博,treat,1,住宿服务,080000
B0J1UR8F03,森屿露营式亲子乐园,体育休闲服务;休闲场所;游乐场,080501,117.998461,36.744422,山东省,淄博市,淄川区,淄河大道南侧中国淄博陶瓷总部东区,,淄博,treat,1,住宿服务,080000
B0JU6H0S4W,酷宝健康欢乐园,体育休闲服务;休闲场所;游乐场,080501,117.978608,36.785088,山东省,淄博市,张店区,天津路与昌国路交叉口东南角D2广场,,淄博,treat,1,住宿服务,080000
B0FFF5Y0EI,临淄齐纳国际影城(天齐路店),体育休闲服务;影剧院;电影院,080601,118.331782,36.813093,山东省,淄博市,临淄区,天齐路方正2009南区4层,,淄博,treat,1,住宿服务,080000
B0FFF74K3B,格莱美PARTY·KTV,体育休闲服务;娱乐场所;棋牌室|体育休闲服务;娱乐场所;迪厅|体育休闲服务;娱乐场所;KTV|购物服务;服装鞋帽皮具店;服装鞋帽皮具店,080306|080303|080302|061100,118.047003,36.80688,山东省,淄博市,张店区,共青团西路95号蓝乾大厦主楼2-3层,,淄博,treat,1,住宿服务,080000
B021502WLV,齐纳国际影城(柳泉路店),体育休闲服务;影剧院;电影院,080601,118.048847,36.80486,山东省,淄博市,张店区,柳泉路45号,,淄博,treat,1,住宿服务,080000
B0FFHQOMG7,MELAND(淄博万象汇店),体育休闲服务;休闲场所;游乐场,080501,118.061508,36.802551,山东省,淄博市,张店区,金晶大道66号淄博万象汇L2层L207、L208,,淄博,treat,1,住宿服务,080000
B0L67R26OA,都来喜洗浴,体育休闲服务;娱乐场所;娱乐场所,080300,118.051591,36.800121,山东省,淄博市,张店区,新村西路24号都来喜大酒店5层,,淄博,treat,1,住宿服务,080000
B0FFK0GF9N,那些年潮汕牛肉火锅,体育休闲服务;娱乐场所;KTV|餐饮服务;餐饮相关场所;餐饮相关,080302|050000,118.038581,36.809767,山东省,淄博市,张店区,公园街道共青团西路94号山东理工大学东校区尚美第三城,,淄博,treat,1,住宿服务,080000
B0I1XZMCUA,涌泉度假·BoBo谷营地,体育休闲服务;休闲场所;露营地,080504,118.142751,36.423891,山东省,淄博市,淄川区,涌泉风景区,,淄博,treat,1,住宿服务,080000
B0K3X721GC,齐技赛车营地,体育休闲服务;休闲场所;休闲场所,080500,118.125092,36.799175,山东省,淄博市,张店区,山东省淄博市张店区湖田街道办事处上湖村湖罗路西首03号105室,,淄博,treat,1,住宿服务,080000
B0FFH5U6DR,一网亦家网咖(淄博潘庄店),体育休闲服务;娱乐场所;网吧,080308,118.053883,36.824774,山东省,淄博市,张店区,柳泉路77号新世界购物广场1号楼甲1三层商业楼,,淄博,treat,1,住宿服务,080000
B02150SNTJ,鲁泰体育场,体育休闲服务;运动场馆;运动场所,080100,117.982651,36.639185,山东省,淄博市,淄川区,鲁泰文化路500号,,淄博,treat,1,住宿服务,080000
B0JB2RW3L7,816健身(福园店),体育休闲服务;运动场馆;健身中心,080111,118.02634,36.8065,山东省,淄博市,张店区,公园街道福悦南街43号甲53号,,淄博,treat,1,住宿服务,080000
B0KD4X1YZS,孝妇河湿地公园房车营地,体育休闲服务;休闲场所;露营地,080504,117.951769,36.801321,山东省,淄博市,张店区,中共小套村党支部委员会(S102北),,淄博,treat,1,住宿服务,080000
B0FFLKMOKW,一网亦家台球,体育休闲服务;娱乐场所;网吧,080308,118.003413,36.817523,山东省,淄博市,张店区,人民西路与重庆路交汇处水晶街E1座3层,,淄博,treat,1,住宿服务,080000
B0FFFV45TF,牛山游乐园,体育休闲服务;休闲场所;游乐场,080501,118.348203,36.792941,山东省,淄博市,临淄区,莲台路大顺山庄斜对面,,淄博,treat,1,住宿服务,080000
B02150RD8V,胜利山九九乐园,风景名胜;公园广场;公园|体育休闲服务;休闲场所;游乐场,110101|080501,118.177256,36.18827,山东省,淄博市,沂源县,新胜街附近,,淄博,treat,1,住宿服务,080000
B0FFLOIJOJ,保利国际影城(淄博文化中心店),体育休闲服务;影剧院;电影院,080601,117.988675,36.826025,山东省,淄博市,张店区,华光路与心环东路交叉口西北角保利大剧院内,,淄博,treat,1,住宿服务,080000
B0J25MI6XZ,淄博露营港,体育休闲服务;休闲场所;休闲场所,080500,117.884236,36.699414,山东省,淄博市,周村区,水上运动管理中心东南侧220米,,淄博,treat,1,住宿服务,080000
B021502257,淄博广电大剧院(广电大厦店),体育休闲服务;影剧院;剧场,080603,118.054534,36.821592,山东省,淄博市,张店区,华光路52广电大厦,,淄博,treat,1,住宿服务,080000
B021503TVS,名都生态园,体育休闲服务;休闲场所;采摘园,080503,118.227567,36.819304,山东省,淄博市,临淄区,清田路3号,,淄博,treat,1,住宿服务,080000
B0JKMCJFOZ,星聚会KTV(淄博万象汇店),体育休闲服务;娱乐场所;KTV,080302,118.06122,36.80358,山东省,淄博市,张店区,体育场街道办事处金晶大道66华润万象汇一楼L190号,,淄博,treat,1,住宿服务,080000
B0L6UAR5T7,大商影城(新玛特店),体育休闲服务;影剧院;电影院,080601,118.030141,36.837885,山东省,淄博市,张店区,中润大道与世纪路交叉口新玛特3层,,淄博,treat,1,住宿服务,080000
B021501D27,绿晟林度假村,体育休闲服务;度假疗养场所;度假村,080401,118.115595,36.942116,山东省,淄博市,桓台县,桓台大道320号,,淄博,treat,1,住宿服务,080000
B0H2FOMFZG,齐纳影城(吾悦广场店),体育休闲服务;影剧院;电影院,080601,118.025099,36.78344,山东省,淄博市,张店区,傅家镇经济开发区昌国路与世纪路交汇处东南角吾悦广场5层Z513,,淄博,treat,1,住宿服务,080000
B0FFM0ZVT4,留仙湖电影城,体育休闲服务;影剧院;电影院,080601,117.956065,36.642048,山东省,淄博市,淄川区,服装城留仙湖路50074号,,淄博,treat,1,住宿服务,080000
B0FFK10X8P,齐纳国际影城IMAX(银座店),体育休闲服务;影剧院;电影院,080601,118.050073,36.805042,山东省,淄博市,张店区,柳泉路128号7楼,,淄博,treat,1,住宿服务,080000
B0K1AYRWOV,范阳河三号钓位,体育休闲服务;休闲场所;垂钓园,080502,117.973792,36.78062,山东省,淄博市,周村区,银河小区东北侧250米,,淄博,treat,1,住宿服务,080000
B0IU65M80X,火箭浣熊俱乐部,体育休闲服务;娱乐场所;娱乐场所,080300,118.032308,36.810006,山东省,淄博市,张店区,北西六路齐赛三期三楼天台,,淄博,treat,1,住宿服务,080000
B0L6HCH7TR,拾音LIVESHOW,体育休闲服务;娱乐场所;酒吧,080304,118.038495,36.796492,山东省,淄博市,张店区,和平路甲17号甲1号1-1,,淄博,treat,1,住宿服务,080000
B0K2G7O4CD,THE ONE GYM健身铁馆,体育休闲服务;运动场馆;健身中心,080111,118.044949,36.846437,山东省,淄博市,张店区,鲁泰大道以南西四路以东齐鲁台港澳服务中心2楼1-2商铺,,淄博,treat,1,住宿服务,080000
B0FFG7XT2D,桓台齐纳国际影城(桓台店),体育休闲服务;影剧院;电影院,080601,118.081788,36.947346,山东省,淄博市,桓台县,桓台大道桓台文体中心C座影视楼5层,,淄博,treat,1,住宿服务,080000
B0LU4CZLP0,幸福蓝海国际影城(恒太城店),体育休闲服务;影剧院;电影院,080601,117.982955,36.823318,山东省,淄博市,张店区,华光路交汇口淄博恒太城三楼3F-011幸福蓝海影城,,淄博,treat,1,住宿服务,080000
B02150SHJB,周村齐纳国际影城(桃园店),体育休闲服务;影剧院;电影院,080601,117.867109,36.811392,山东省,淄博市,周村区,机场路与正阳路交叉口美家惠桃园店4层,,淄博,treat,1,住宿服务,080000
B0FFKD27NE,摘星山庄,体育休闲服务;休闲场所;休闲场所|餐饮服务;中餐厅;中餐厅,080500|050100,118.065399,36.551924,山东省,淄博市,淄川区,047县道南5米,,淄博,treat,1,住宿服务,080000
B0I0J75RDL,网鱼电竞(淄博万象汇店),体育休闲服务;娱乐场所;网吧,080308,118.059151,36.800508,山东省,淄博市,张店区,金晶大道107号中央国际广场B座2楼107号201室,,淄博,treat,1,住宿服务,080000
B02150SHJ8,博纳国际影城(淄博店),体育休闲服务;影剧院;电影院,080601,118.050563,36.806759,山东省,淄博市,张店区,柳泉路152号茂业天地8层,,淄博,treat,1,住宿服务,080000
B0L3KRC4CN,THE ONE GYM齐盛里店,体育休闲服务;运动场馆;健身中心,080111,117.986491,36.823227,山东省,淄博市,张店区,华光路323号4号楼01二层,,淄博,treat,1,住宿服务,080000
B0JAT5Q6IO,就是玩五阳湖营地,体育休闲服务;体育休闲服务场所;体育休闲服务场所,080000,117.864239,36.399988,山东省,淄博市,博山区,石和路泰宝自在庄园西北方600米,,淄博,treat,1,住宿服务,080000
B0L3KABAHW,淄博浅海牧羊村,体育休闲服务;休闲场所;休闲场所,080500,117.994975,36.819675,山东省,淄博市,张店区,林泽街与北京路交叉口东南80米,,淄博,treat,1,住宿服务,080000
B0FFF9SIE9,一网亦家网咖(淄博王府井店),体育休闲服务;娱乐场所;网吧,080308,118.051804,36.804834,山东省,淄博市,张店区,共青团西路57号淄博王府井广场GD幢王府井大街58号,,淄博,treat,1,住宿服务,080000
B0KDSUULVG,北金垂钓园,体育休闲服务;休闲场所;垂钓园,080502,118.181262,36.886488,山东省,淄博市,临淄区,[],,淄博,treat,1,住宿服务,080000
B0FFFE6PB9,中影·齐纳国际影城(银泰城),体育休闲服务;影剧院;电影院,080601,118.033816,36.849415,山东省,淄博市,张店区,高新技术产业开发区鲁泰大道9号银泰城3层,,淄博,treat,1,住宿服务,080000
B0JRT52104,卡其多童话王国,体育休闲服务;体育休闲服务场所;体育休闲服务场所,080000,118.071765,36.928337,山东省,淄博市,桓台县,果里镇柳泉路4611号,,淄博,treat,1,住宿服务,080000
B02150R0CE,新牛旺垂钓园,体育休闲服务;休闲场所;垂钓园,080502,118.005726,36.877589,山东省,淄博市,张店区,房镇镇开发区世纪路与英雄路路口西300米路北,,淄博,treat,1,住宿服务,080000
B0L255CQN3,网鱼电竞(淄博博山西冶街北店),体育休闲服务;娱乐场所;网吧,080308,117.863588,36.503478,山东省,淄博市,博山区,城西街道人民路36号楼二楼(老火车站出站口),,淄博,treat,1,住宿服务,080000
B0LKODFMMU,网鱼电竞(淄博福园店),体育休闲服务;娱乐场所;网吧,080308,118.025744,36.805517,山东省,淄博市,张店区,福悦南街43甲61-62号(万通中心东行100米),,淄博,treat,1,住宿服务,080000
B0K2PMGHUF,一网亦家(春雨店),体育休闲服务;娱乐场所;网吧,080308,118.042477,36.802583,山东省,淄博市,张店区,和平街道新村西路158号,,淄博,treat,1,住宿服务,080000
B0K2D7F29G,北极星羽毛球馆(新馆),体育休闲服务;运动场馆;羽毛球场,080118,118.273701,36.803555,山东省,淄博市,临淄区,康平街西85号,,淄博,treat,1,住宿服务,080000
B0I1T59ZI1,沃美影城(淄博万象汇),体育休闲服务;影剧院;电影院,080601,118.062697,36.801723,山东省,淄博市,张店区,金晶大道66号淄博万象汇L4层L463,,淄博,treat,1,住宿服务,080000
B0FFGAQ84L,博山齐纳国际影城(第五季·玩库商业中心店),体育休闲服务;影剧院;电影院,080601,117.859789,36.496264,山东省,淄博市,博山区,大街9号第五季玩库商业中心5层,,淄博,treat,1,住宿服务,080000
B0K23DQMWH,naaaachr自然公园,体育休闲服务;体育休闲服务场所;体育休闲服务场所,080000,118.027436,36.791536,山东省,淄博市,张店区,世纪路28号,,淄博,treat,1,住宿服务,080000
B0LGVCVZOO,龙湾水乡漂流,体育休闲服务;体育休闲服务场所;体育休闲服务场所,080000,118.246723,36.156293,山东省,淄博市,沂源县,悦庄镇下龙巷村村民委员会南1000米(龙湾水乡冰雪乐园西5米),,淄博,treat,1,住宿服务,080000
B0GR1R0V03,齐纳国际影城(联通路红星美凯龙店),体育休闲服务;影剧院;电影院,080601,118.009097,36.828325,山东省,淄博市,张店区,祥瑞花园东北门正对过,,淄博,treat,1,住宿服务,080000
B0KDV5LHLC,凡尔赛篮球运动中心,体育休闲服务;运动场馆;篮球场馆,080104,118.051511,36.854882,山东省,淄博市,张店区,兰雁大道刺绣路1号,,淄博,treat,1,住宿服务,080000
B0FFF0ETW8,红糖果KTV,体育休闲服务;娱乐场所;KTV|购物服务;购物相关场所;购物相关场所,080302|060000,118.038755,36.80997,山东省,淄博市,张店区,共青团西路尚美第三城7号,,淄博,treat,1,住宿服务,080000
B0FFFJCQ6Y,淄博潭溪山庄,住宿服务;住宿服务相关;住宿服务相关|体育休闲服务;度假疗养场所;度假村,100000|080401,118.202805,36.495151,山东省,淄博市,淄川区,太河镇石沟村潭溪山庄,,淄博,treat,1,住宿服务,080000
B02150R1H4,红糖果商务会客厅(吉祥广场店),体育休闲服务;娱乐场所;KTV,080302,117.971354,36.652928,山东省,淄博市,淄川区,吉祥路吉祥广场1号,,淄博,treat,1,住宿服务,080000
B0J2YCHA5G,网鱼电竞(淄博利群时代店),体育休闲服务;娱乐场所;网吧,080308,118.047978,36.801495,山东省,淄博市,张店区,柳泉路29号利群时代广场三楼南区,,淄博,treat,1,住宿服务,080000
B0L0PZ04QT,金笛 KTV,体育休闲服务;娱乐场所;KTV,080302,118.048365,36.803043,山东省,淄博市,张店区,柳泉路31号百脑汇5楼,,淄博,treat,1,住宿服务,080000
B021501AD3,张店区体育馆,体育休闲服务;运动场馆;综合体育馆,080101,118.036155,36.796165,山东省,淄博市,张店区,和平路19号,,淄博,treat,1,住宿服务,080000
B0FFG2JBXQ,万达影城(临淄茂业店),体育休闲服务;影剧院;电影院,080601,118.295936,36.817107,山东省,淄博市,临淄区,大顺路茂业广场9层,,淄博,treat,1,住宿服务,080000
B0L6NATVI2,金沙健身24小时自助共享健身,体育休闲服务;运动场馆;健身中心,080111,118.000851,36.816488,山东省,淄博市,张店区,马尚街道办事处人民西路188号汇美弘域甲9-2号甲10号,,淄博,treat,1,住宿服务,080000
B0LARO65CJ,淄博羽翔羽毛球馆(淄博总店),体育休闲服务;运动场馆;羽毛球场,080118,118.031166,36.796618,山东省,淄博市,张店区,和平路27号,,淄博,treat,1,住宿服务,080000
B0K0CUE7NC,的幸·强无敌张店羽球国际主题馆羽毛球馆,体育休闲服务;运动场馆;羽毛球场,080118,118.072624,36.780393,山东省,淄博市,张店区,昌国路167号,,淄博,treat,1,住宿服务,080000
B0KKVC0GWY,网鱼电竞(淄博水晶街理工大学店),体育休闲服务;娱乐场所;网吧,080308,118.000995,36.816495,山东省,淄博市,张店区,人民西路与水晶街交汇西侧188号汇美弘域2楼,,淄博,treat,1,住宿服务,080000
B021504A03,红糖果量贩KTV(义乌店),体育休闲服务;娱乐场所;KTV|购物服务;购物相关场所;购物相关场所,080302|060000,118.01855,36.823673,山东省,淄博市,张店区,义乌商城街97号,,淄博,treat,1,住宿服务,080000
B0FFKN7900,贝特城多元运动中心蹦床公园(淄博店),体育休闲服务;休闲场所;游乐场|体育休闲服务;运动场馆;综合体育馆,080501|080101,118.001073,36.786047,山东省,淄博市,张店区,西九路客运中心5层,,淄博,treat,1,住宿服务,080000
B021504BTG,海乐迪(大顺路店),体育休闲服务;娱乐场所;KTV,080302,118.295242,36.809275,山东省,淄博市,临淄区,大顺路(齐园路)11号,,淄博,treat,1,住宿服务,080000
B0J1SSXNP4,一网亦家网咖(淄博新玛特店),体育休闲服务;体育休闲服务场所;体育休闲服务场所,080000,118.030155,36.83789,山东省,淄博市,张店区,张店区高新区中润大道1号新玛特一层F1S69,,淄博,treat,1,住宿服务,080000
B0KR07N2H2,网鱼电竞(淄博临淄大顺花园店),体育休闲服务;娱乐场所;网吧,080308,118.293336,36.814677,山东省,淄博市,临淄区,桓公路55号商品房二楼西侧,,淄博,treat,1,住宿服务,080000
B0FFG9O4G0,一网亦家网咖(淄博步行街北店),体育休闲服务;娱乐场所;网吧,080308,118.04203,36.820475,山东省,淄博市,张店区,新世界商业街北段160号,,淄博,treat,1,住宿服务,080000
B0FFHX7PXZ,五阳湖生态休闲度假区,体育休闲服务;度假疗养场所;度假村|风景名胜;风景名胜;风景名胜,080401|110200,117.88886,36.395126,山东省,淄博市,博山区,石马镇051县道附近,,淄博,treat,1,住宿服务,080000
B0KAYC0M7J,淄博柳泉印象露营基地,体育休闲服务;休闲场所;露营地,080504,117.938289,36.623837,山东省,淄博市,淄川区,将军路街道北石谷村村委西800米,,淄博,treat,1,住宿服务,080000
B021504D3M,淄博市体育中心游泳馆(暂停营业),体育休闲服务;运动场馆;游泳馆,080110,117.983437,36.813185,山东省,淄博市,张店区,人民西路321淄博市体育中心,,淄博,treat,1,住宿服务,080000
B0K2T7PVG3,归园·矿野部落(建设中),体育休闲服务;体育休闲服务场所;体育休闲服务场所,080000,118.136556,36.817851,山东省,淄博市,张店区,联通路,,淄博,treat,1,住宿服务,080000
B0FFFPL78G,蓝溪国际滑雪场(暂停营业),体育休闲服务;运动场馆;滑雪场,080106,118.358638,36.781914,山东省,淄博市,临淄区,齐陵街道办南山庄村村委院内,,淄博,treat,1,住宿服务,080000
B0FFLJ772L,齐乐梦华玉黛湖滑雪场(暂停营业),体育休闲服务;运动场馆;滑雪场,080106,118.143299,36.806183,山东省,淄博市,张店区,杏园街道湖田街道办事处309国道6公里处路北玉黛湖滑雪场内向西20米,,淄博,treat,1,住宿服务,080000
B02150SQ9F,齐乐梦华嬉雪乐园,体育休闲服务;运动场馆;滑雪场,080106,118.028732,36.666134,山东省,淄博市,淄川区,梓橦山旅游区,,淄博,treat,1,住宿服务,080000
B0K0ZZQONM,今朝·莎莎舞会,体育休闲服务;体育休闲服务场所;体育休闲服务场所,080000,118.023454,36.793565,山东省,淄博市,张店区,世纪路房家艺术村1号大院内D1-1号,,淄博,treat,1,住宿服务,080000
B0K0ZZQONM,今朝·莎莎舞会,体育休闲服务;体育休闲服务场所;体育休闲服务场所,080000,118.023454,36.793565,山东省,淄博市,张店区,世纪路房家艺术村1号大院内D1-1号,,淄博,treat,1,住宿服务,080000
B021504D3L,淄博市体育中心综合体育馆,体育休闲服务;运动场馆;综合体育馆,080101,117.984612,36.814996,山东省,淄博市,张店区,人民路和北京路西南方向,,淄博,treat,1,住宿服务,080000
B0K2XSABP0,悠闲小时光亲子乐园,体育休闲服务;休闲场所;游乐场,080501,117.996387,36.74263,山东省,淄博市,淄川区,淄河大道陶瓷总部东区南排,,淄博,treat,1,住宿服务,080000
B0IRXUYH1E,网鱼电竞(淄博吾悦广场店),体育休闲服务;娱乐场所;网吧,080308,118.025847,36.784573,山东省,淄博市,张店区,吾悦广场3号门东金街F302-306,,淄博,treat,1,住宿服务,080000
B0L225ZKRL,八大局烧烤·博山菜(总店),餐饮服务;中餐厅;特色/地方风味餐厅|体育休闲服务;体育休闲服务场所;体育休闲服务场所,050118|080000,118.065799,36.810167,山东省,淄博市,张店区,人民东路6号4层,,淄博,treat,1,住宿服务,080000
B0J3JMZL7W,九顶山·日光域营地乐园,体育休闲服务;休闲场所;露营地,080504,118.154775,36.832025,山东省,淄博市,张店区,鲁泰大道与彭官南路交叉口西360米,,淄博,treat,1,住宿服务,080000
B0JDR5ITF5,潮玩社(淄博万象汇店),体育休闲服务;娱乐场所;娱乐场所,080300,118.062729,36.801232,山东省,淄博市,张店区,金晶大道66号淄博万象汇L2层L228,,淄博,treat,1,住宿服务,080000
B0LKKHNA0N,网鱼电竞(明湖公馆店),体育休闲服务;娱乐场所;网吧,080308,118.044925,36.846528,山东省,淄博市,张店区,鲁泰大道明湖公馆正门,,淄博,treat,1,住宿服务,080000
B0L12STBEO,先锋电竞(红星美凯龙店),体育休闲服务;娱乐场所;网吧,080308,118.010316,36.829049,山东省,淄博市,张店区,宏程国际广场红星美凯龙2号门对面地下通道,,淄博,treat,1,住宿服务,080000
B0K17CNBYG,东方垂钓园,体育休闲服务;休闲场所;垂钓园,080502,117.904165,36.817878,山东省,淄博市,周村区,班里庄村,,淄博,treat,1,住宿服务,080000
B0FFGQWOYP,齐纳影城(鑫马吾悦店),体育休闲服务;影剧院;电影院,080601,118.003095,36.825006,山东省,淄博市,张店区,华光路288号鑫马吾悦广场2楼东首,,淄博,treat,1,住宿服务,080000
B0K3ZRH540,梧桐网咖(临淄店),体育休闲服务;体育休闲服务场所;体育休闲服务场所,080000,118.297524,36.822841,山东省,淄博市,临淄区,大顺路87-3号,,淄博,treat,1,住宿服务,080000
B0LG1CUCNM,淄博胜利.Victor羽毛球俱乐部,体育休闲服务;运动场馆;羽毛球场,080118,118.00382,36.851648,山东省,淄博市,张店区,房镇镇北京路和铭波路交叉口东800米路北院内(淄博环保供热有限公司西邻),,淄博,treat,1,住宿服务,080000
B0H0R7C512,网鱼电竞(淄博新玛特商场店),体育休闲服务;娱乐场所;网吧,080308,118.031493,36.838092,山东省,淄博市,张店区,西六路35号,,淄博,treat,1,住宿服务,080000
B0KDO5VKNO,喓嘢核桃树下露营地,体育休闲服务;休闲场所;露营地,080504,117.95799,36.854657,山东省,淄博市,张店区,房镇镇东孙路7号,,淄博,treat,1,住宿服务,080000
B0FFIJSJJD,创美国际影城(临淄店),体育休闲服务;影剧院;电影院,080601,118.300402,36.809507,山东省,淄博市,临淄区,齐城路2号,,淄博,treat,1,住宿服务,080000
B0KAVHEMI3,洞洞手DIY手工店,体育休闲服务;休闲场所;休闲场所,080500,118.060799,36.803331,山东省,淄博市,张店区,华润大厦7楼707,,淄博,treat,1,住宿服务,080000
B0IR1SSMF8,南来北往露营地,体育休闲服务;休闲场所;露营地,080504,118.079887,37.052902,山东省,淄博市,桓台县,起凤镇鱼二村起马路与唐华路交叉路口往东300米路南,,淄博,treat,1,住宿服务,080000
B0JR3S9FGB,唐庄影城,体育休闲服务;影剧院;电影院,080601,118.02674,36.82247,山东省,淄博市,张店区,华光路128号唐庄酒店四楼,,淄博,treat,1,住宿服务,080000
B0FFKQN68P,周村百泉休闲垂钓园,体育休闲服务;休闲场所;垂钓园,080502,117.834243,36.690856,山东省,淄博市,周村区,正阳西路,,淄博,treat,1,住宿服务,080000
B0L25CDBIQ,民谣集市,体育休闲服务;娱乐场所;酒吧,080304,118.166354,36.183166,山东省,淄博市,沂源县,历山街道办事处居家城五号街5-1号西厅,,淄博,treat,1,住宿服务,080000
B0LUXAL696,魅KTV·AI辅唱(恒太城店),体育休闲服务;娱乐场所;KTV,080302,117.982531,36.823149,山东省,淄博市,张店区,华光路331号淄博恒太城F4层,,淄博,treat,1,住宿服务,080000
B0H05CGCFO,锤子女子健身,体育休闲服务;运动场馆;健身中心,080111,118.034984,36.837696,山东省,淄博市,张店区,中润大道7号402,,淄博,treat,1,住宿服务,080000
B0L05PS26A,本草造物局·草本手作LAB(万象汇店),体育休闲服务;休闲场所;休闲场所,080500,118.060675,36.803275,山东省,淄博市,张店区,金晶大道辅路淄博万象汇,,淄博,treat,1,住宿服务,080000
B0LAVC7LY5,滢宝部落亲子乐园,体育休闲服务;休闲场所;游乐场,080501,118.370158,36.800964,山东省,淄博市,临淄区,齐陵街道临淄大道168号,,淄博,treat,1,住宿服务,080000
B0L05PS26A,本草造物局·草本手作LAB(万象汇店),体育休闲服务;休闲场所;休闲场所,080500,118.060675,36.803275,山东省,淄博市,张店区,金晶大道辅路淄博万象汇,,淄博,treat,1,住宿服务,080000
B0LAVC7LY5,滢宝部落亲子乐园,体育休闲服务;休闲场所;游乐场,080501,118.370158,36.800964,山东省,淄博市,临淄区,齐陵街道临淄大道168号,,淄博,treat,1,住宿服务,080000
B0K2LUOXC0,云川羽毛球俱乐部,体育休闲服务;运动场馆;羽毛球场,080118,118.096937,36.936719,山东省,淄博市,桓台县,张北路赵家南路路口南150米路东顺达加油站对面,,淄博,treat,1,住宿服务,080000
B0K3PO5IZE,源泉第一家荷渔村,体育休闲服务;体育休闲服务场所;体育休闲服务场所,080000,118.052494,36.416154,山东省,淄博市,博山区,011乡道,,淄博,treat,1,住宿服务,080000
B0L3ASTCAS,十二星座KTV,体育休闲服务;娱乐场所;KTV,080302,118.032525,36.810975,山东省,淄博市,张店区,北西六路与二棉北街交叉口西南60米,,淄博,treat,1,住宿服务,080000
B0LBYCUI31,卡皮巴拉理想国,体育休闲服务;体育休闲服务场所;体育休闲服务场所,080000,117.808609,36.508591,山东省,淄博市,博山区,山东文旅·红叶柿岩旅游区内,,淄博,treat,1,住宿服务,080000
B0HKORK2S4,天空之城(吾悦广场淄博店),体育休闲服务;娱乐场所;游戏厅,080305,118.024889,36.784062,山东省,淄博市,张店区,世纪路昌国路交汇处东南角吾悦广场(淄博店)F2层,,淄博,treat,1,住宿服务,080000
B0KUCC3O7J,莎莎俱乐部,体育休闲服务;体育休闲服务场所;体育休闲服务场所,080000,118.059368,36.803973,山东省,淄博市,张店区,金晶大道165号金贝电子二楼,,淄博,treat,1,住宿服务,080000
B0FFFFYBC8,歌莱美量贩式 KTV(银泰店),体育休闲服务;娱乐场所;KTV,080302,118.033538,36.848904,山东省,淄博市,张店区,鲁泰大道9号银泰城4层,,淄博,treat,1,住宿服务,080000
B0K1N9BW6T,魅KTV·AI辅唱(淄博吾悦广场店),体育休闲服务;娱乐场所;KTV,080302,118.025115,36.78466,山东省,淄博市,张店区,傅家镇世纪路与昌国路交汇处东南角吾悦广场1号门2楼2001、2045商铺,,淄博,treat,1,住宿服务,080000
B0FFFJO5EN,一网亦家网咖(淄博乐享店),体育休闲服务;娱乐场所;网吧,080308,118.042282,36.805475,山东省,淄博市,张店区,新世界商业街南段3号,,淄博,treat,1,住宿服务,080000
B0FFKRY15X,MIX电竞馆,体育休闲服务;娱乐场所;网吧,080308,118.04371,36.828115,山东省,淄博市,张店区,丽景翠苑小区15号楼附房西起1号,,淄博,treat,1,住宿服务,080000
B021504N4G,新怡网吧,体育休闲服务;娱乐场所;网吧,080308,118.066982,36.817954,山东省,淄博市,张店区,华光路29号甲17号,,淄博,treat,1,住宿服务,080000
B0L12ST43O,816健身(文化宫店),体育休闲服务;运动场馆;健身中心,080111,117.985915,36.825595,山东省,淄博市,张店区,华光路320号三层816健身,,淄博,treat,1,住宿服务,080000
B0LRYAUFMZ,欢唱豆·智慧AI自助KTV(理工大学东校区店),体育休闲服务;娱乐场所;KTV,080302,118.04278,36.806934,山东省,淄博市,张店区,新世界商业街61号,,淄博,treat,1,住宿服务,080000
B0LUFR20UH,松鼠部落森林营地,体育休闲服务;体育休闲服务场所;体育休闲服务场所,080000,117.944355,36.637216,山东省,淄博市,淄川区,将军路与孝水路交叉路口淄城路849号,,淄博,treat,1,住宿服务,080000
B0M6D96ULS,Dora Bar朵拉酒吧(万象汇店),体育休闲服务;娱乐场所;酒吧,080304,118.063245,36.802776,山东省,淄博市,张店区,东一路61号2层,,淄博,treat,1,住宿服务,080000
B0H317Y9QT,会飞的哈林(吾悦广场淄博店),体育休闲服务;休闲场所;游乐场,080501,118.0249,36.78406,山东省,淄博市,张店区,世纪路昌国路交汇处东南角吾悦广场(淄博店)F3层,,淄博,treat,1,住宿服务,080000
B02150R0Z3,唐汇KTV(周村区店),体育休闲服务;娱乐场所;KTV,080302,117.84544,36.800542,山东省,淄博市,周村区,新建中路52号,,淄博,treat,1,住宿服务,080000
B0HR7YQ6LP,巅峰减重减肥训练营(山东淄博基地),体育休闲服务;运动场馆;健身中心|生活服务;生活服务场所;生活服务场所,080111|070000,117.990603,37.028521,山东省,淄博市,桓台县,田庄镇高楼村于家屋子,,淄博,treat,1,住宿服务,080000
B021504KKC,皇家钱柜(周村店),体育休闲服务;娱乐场所;KTV,080302,117.858588,36.809703,山东省,淄博市,周村区,丝绸路98号,,淄博,treat,1,住宿服务,080000
B0LDD7IV4Z,雀发潮AI智慧KTV·台球·影吧(淄博王府井店),体育休闲服务;体育休闲服务场所;体育休闲服务场所,080000,118.052308,36.805718,山东省,淄博市,张店区,王府井广场,,淄博,treat,1,住宿服务,080000
B0KG7CA4TN,悦趣童年撒欢乐园(淄川柳泉啤酒厂店),体育休闲服务;休闲场所;游乐场,080501,117.953479,36.644779,山东省,淄博市,淄川区,将军路街道西关二社区淄城路783号淄川柳泉啤酒厂内西南角,,淄博,treat,1,住宿服务,080000
B02150R25Q,国际先锋音乐,体育休闲服务;娱乐场所;KTV,080302,117.984214,36.663334,山东省,淄博市,淄川区,淄城路兴华大厦1层,,淄博,treat,1,住宿服务,080000
B0LGRUBQJ2,恒乐垂钓园,体育休闲服务;休闲场所;垂钓园,080502,117.941222,36.826229,山东省,淄博市,张店区,华光路与广州路交叉口往东,,淄博,treat,1,住宿服务,080000
B02150R25Q,国际先锋音乐,体育休闲服务;娱乐场所;KTV,080302,117.984214,36.663334,山东省,淄博市,淄川区,淄城路兴华大厦1层,,淄博,treat,1,住宿服务,080000
B0LGRUBQJ2,恒乐垂钓园,体育休闲服务;休闲场所;垂钓园,080502,117.941222,36.826229,山东省,淄博市,张店区,华光路与广州路交叉口往东,,淄博,treat,1,住宿服务,080000
B0L667MAME,YOLO PARTY有乐派对潮玩街区(淄博店),体育休闲服务;体育休闲服务场所;体育休闲服务场所,080000,118.060725,36.800125,山东省,淄博市,张店区,商场东路2号利群集团淄博购物广场F3层,,淄博,treat,1,住宿服务,080000
B0L6HLJ2U9,一网亦家(鑫马吾悦店),体育休闲服务;娱乐场所;网吧,080308,118.002352,36.825463,山东省,淄博市,张店区,马尚镇新马吾悦广场北门东侧第一间沿街商铺,,淄博,treat,1,住宿服务,080000
B0L21AS8ET,源素电竞(淄博恒太城店),体育休闲服务;娱乐场所;网吧,080308,117.983618,36.823551,山东省,淄博市,张店区,淄博恒太城3F020,,淄博,treat,1,住宿服务,080000
B0L16CSSPR,觅火原创陶琉工作室(万象汇店),体育休闲服务;休闲场所;休闲场所,080500,118.060887,36.803298,山东省,淄博市,张店区,金晶大道66号华润大厦F11层,,淄博,treat,1,住宿服务,080000
B0JGRS7KZN,银河休闲垂钓园,体育休闲服务;休闲场所;垂钓园,080502,117.968459,36.779166,山东省,淄博市,周村区,周隆路8883号,,淄博,treat,1,住宿服务,080000
B0I2J53BPG,桓台县盛源垂钓园,体育休闲服务;休闲场所;垂钓园,080502,118.118671,37.007651,山东省,淄博市,桓台县,宫夏路与国道205口南西行500米,,淄博,treat,1,住宿服务,080000
B0KRGMQMDE,孝妇河102停车场露营基地,体育休闲服务;体育休闲服务场所;体育休闲服务场所,080000,117.96232,36.800752,山东省,淄博市,张店区,原山大道s102号,,淄博,treat,1,住宿服务,080000
B0HB458FIX,至潮影城(印象汇店),体育休闲服务;影剧院;电影院,080601,118.05321,36.823836,山东省,淄博市,张店区,柳泉路67号印象汇3层,,淄博,treat,1,住宿服务,080000
B02150Q6W9,齐鲁欢乐世界(暂停营业),体育休闲服务;休闲场所;游乐场,080501,117.954435,36.617144,山东省,淄博市,淄川区,将军路街道将军路街道办事处山川路111号,,淄博,treat,1,住宿服务,080000
B0FFG7XT2L,银星国际影城(淄川店),体育休闲服务;影剧院;电影院,080601,117.961089,36.649336,山东省,淄博市,淄川区,银座购物广场淄川店西门旁,,淄博,treat,1,住宿服务,080000
B0KDC9JCVH,网鱼电竞(淄博星河城店),体育休闲服务;娱乐场所;网吧,080308,117.989691,36.799815,山东省,淄博市,张店区,马尚街道办事处和平路星河城童鑫1号楼四层401-405号商铺,,淄博,treat,1,住宿服务,080000
B0FFH6ELIB,淄博方糖餐饮娱乐有限公司,体育休闲服务;娱乐场所;KTV,080302,117.86519,36.503723,山东省,淄博市,博山区,金晶路2号(原大地洗冤),,淄博,treat,1,住宿服务,080000
B0LR37EAZT,淄博鲲鹏鲢鳙垂钓园,体育休闲服务;休闲场所;垂钓园,080502,118.146403,36.842571,山东省,淄博市,张店区,民祥路257号,,淄博,treat,1,住宿服务,080000
B0FFHCTBV2,老湾渔事,体育休闲服务;体育休闲服务场所;体育休闲服务场所,080000,118.09096,37.075805,山东省,淄博市,桓台县,起凤镇渔四村,,淄博,treat,1,住宿服务,080000
B0M62SUI7O,齐盛冰雪乐园,体育休闲服务;休闲场所;游乐场,080501,117.987207,36.814301,山东省,淄博市,张店区,人民西路321号,,淄博,treat,1,住宿服务,080000
B0LUF12U37,龍歌自助小火锅(临淄茂业店),体育休闲服务;娱乐场所;KTV,080302,118.296275,36.817381,山东省,淄博市,临淄区,大顺路68号茂业百货时代店F7层,,淄博,treat,1,住宿服务,080000
B0G1P4JZ6S,齐羽体育羽毛球馆,体育休闲服务;运动场馆;羽毛球场,080118,118.052025,36.844301,山东省,淄博市,张店区,泰美路与向阳路交叉口东南160米,,淄博,treat,1,住宿服务,080000
B0FFF4WQNW,周村体育馆,体育休闲服务;运动场馆;综合体育馆,080101,117.847984,36.789105,山东省,淄博市,周村区,体育场路1039号,,淄博,treat,1,住宿服务,080000
B0L13H5XOB,99+Changes GYM,体育休闲服务;运动场馆;健身中心,080111,118.012429,36.810507,山东省,淄博市,张店区,奥朗特购物广场四楼西侧电梯上四楼,,淄博,treat,1,住宿服务,080000
B0JUT5NDI5,池上·在野营地,体育休闲服务;休闲场所;露营地,080504,118.156114,36.317857,山东省,淄博市,博山区,池上镇店子村南505米,,淄博,treat,1,住宿服务,080000
B0LAUZ2DE0,山河民谣酒馆,体育休闲服务;娱乐场所;酒吧,080304,118.04213,36.812767,山东省,淄博市,张店区,公园街道办事处新世界商业街中段96号,,淄博,treat,1,住宿服务,080000
B0J0J7QL8L,咔奇咔奇超乐场(淄博万象汇店),体育休闲服务;娱乐场所;娱乐场所,080300,118.062204,36.801334,山东省,淄博市,张店区,金晶大道66号淄博万象汇L4层L420,,淄博,treat,1,住宿服务,080000
B0H3SUM3B9,儿童乐园,体育休闲服务;休闲场所;休闲场所,080500,117.988041,36.783376,山东省,淄博市,张店区,和平路孝妇河湿地公园(东南角),,淄博,treat,1,住宿服务,080000
B0H3SUM3B9,儿童乐园,体育休闲服务;休闲场所;休闲场所,080500,117.988041,36.783376,山东省,淄博市,张店区,和平路孝妇河湿地公园(东南角),,淄博,treat,1,住宿服务,080000
B0L2K7GYPJ,先锋电竞(莲池利群店),体育休闲服务;娱乐场所;网吧,080308,118.035518,36.830991,山东省,淄博市,张店区,北西五路25号莲池利群购物广场,,淄博,treat,1,住宿服务,080000
B0L6AL0D15,摸鱼网咖,体育休闲服务;娱乐场所;网吧,080308,118.03627,36.848136,山东省,淄博市,张店区,鲁泰大道银泰城1层东南侧,,淄博,treat,1,住宿服务,080000
B02150SHJ7,万达影城(淄博彩世界广场店),体育休闲服务;影剧院;电影院,080601,118.030389,36.8222,山东省,淄博市,张店区,华光路100号彩世界商业广场4层,,淄博,treat,1,住宿服务,080000
B0LAPULGEI,Dr.Oscar淄博奥斯卡酒吧(精品店),体育休闲服务;娱乐场所;酒吧,080304,118.059673,36.805657,山东省,淄博市,张店区,金晶大道177号院内淄博饭店会展中心一层二层,,淄博,treat,1,住宿服务,080000
B0FFKLAV0Y,沐锶汤温泉度假区,体育休闲服务;度假疗养场所;度假村,080401,117.864137,37.174138,山东省,淄博市,高青县,潍高路277甲,,淄博,treat,1,住宿服务,080000
B02150QFOV,淄博张店浩元网吧,体育休闲服务;娱乐场所;网吧,080308,118.061689,36.807318,山东省,淄博市,张店区,金晶大道118中心商城2层,,淄博,treat,1,住宿服务,080000
B0JAMREXKA,幻境空间·超级元宇宙(淄博银泰城店),体育休闲服务;体育休闲服务场所;体育休闲服务场所,080000,118.033753,36.848559,山东省,淄博市,张店区,鲁泰大道9号银泰城3层03039齐纳影城南哈雷对面,,淄博,treat,1,住宿服务,080000
B0FFJ4ZJSA,临淄蹴鞠小镇,体育休闲服务;运动场馆;综合体育馆,080101,118.371823,36.805196,山东省,淄博市,临淄区,临淄大道与淄水路交叉口东北150米,,淄博,treat,1,住宿服务,080000
B0JAGHFOGM,黑铁山垂钓园,体育休闲服务;体育休闲服务场所;体育休闲服务场所,080000,118.151362,36.847513,山东省,淄博市,张店区,民祥路257号,,淄博,treat,1,住宿服务,080000
B0J15ZWEL1,望云山轻奢露营地,体育休闲服务;休闲场所;露营地,080504,118.180661,36.482327,山东省,淄博市,淄川区,太河镇石沟村村委西888米,,淄博,treat,1,住宿服务,080000
B0FFHQYG2F,前峰电竞(世星大厦店),体育休闲服务;娱乐场所;网吧,080308,118.040326,36.807643,山东省,淄博市,张店区,共青团西路世星大厦2层,,淄博,treat,1,住宿服务,080000
B0FFIX3JVJ,淄博浩然生态园,体育休闲服务;休闲场所;休闲场所|公司企业;公司;公司,080500|170200,118.047444,36.934026,山东省,淄博市,桓台县,于堤村西南角,,淄博,treat,1,住宿服务,080000
B0IK1CNPB2,633棋牌,体育休闲服务;娱乐场所;KTV,080302,118.055231,36.83155,山东省,淄博市,张店区,柳泉路99号世纪大酒店院内北50米,,淄博,treat,1,住宿服务,080000
B0JUYAN8EC,圣洋游泳(恒大翡翠华庭店),体育休闲服务;运动场馆;游泳馆,080110,118.039832,36.848593,山东省,淄博市,张店区,鲁泰大道与北西五路交汇处恒大翡翠华庭南门,,淄博,treat,1,住宿服务,080000
B0LDA9GS2X,淄博小乔电竞信誉路店,体育休闲服务;娱乐场所;网吧,080308,118.092594,36.948031,山东省,淄博市,桓台县,东岳路520号,,淄博,treat,1,住宿服务,080000
B0K0OLNUZW,大昌文化羽毛球俱乐部,体育休闲服务;运动场馆;羽毛球场,080118,118.022468,36.850107,山东省,淄博市,张店区,大张村东门东200米路南,,淄博,treat,1,住宿服务,080000
B0L2AC2LE3,烁影新世纪影城(博山易达广场店),体育休闲服务;影剧院;电影院,080601,117.83655,36.498254,山东省,淄博市,博山区,域城镇中心路125号7号楼北区4-夹层401户,,淄博,treat,1,住宿服务,080000
B02150QOIR,乡野农家,餐饮服务;中餐厅;中餐厅|体育休闲服务;休闲场所;休闲场所,050100|080500,118.019169,36.809586,山东省,淄博市,张店区,共青团西路208号,,淄博,treat,1,住宿服务,080000
B0L1D9V6PY,黑马电竞,体育休闲服务;娱乐场所;网吧,080308,118.325056,36.834576,山东省,淄博市,临淄区,学府路,,淄博,treat,1,住宿服务,080000
B0KUGHW5M0,博山山水间露营地,体育休闲服务;体育休闲服务场所;体育休闲服务场所,080000,118.043702,36.319981,山东省,淄博市,博山区,池上镇小峰村南鸡窝路1号,,淄博,treat,1,住宿服务,080000
B0215043E2,淄博都来喜大酒店,住宿服务;宾馆酒店;宾馆酒店|体育休闲服务;娱乐场所;娱乐场所,100100|080300,118.051618,36.800128,山东省,淄博市,张店区,张店新村西路24号,,淄博,treat,1,住宿服务,080000
B0MGLSMO7X,峰涛大自然(淄川店),体育休闲服务;娱乐场所;娱乐场所,080300,117.95353,36.632559,山东省,淄博市,淄川区,滨河路与将军东路交叉口西南220米,,淄博,treat,1,住宿服务,080000
B0KGJAXWL4,云泽垂钓园,体育休闲服务;休闲场所;垂钓园,080502,117.954551,36.816521,山东省,淄博市,张店区,汇文路66号,,淄博,treat,1,住宿服务,080000
B0K35SASD6,G2街区(淄博万达店),体育休闲服务;休闲场所;游乐场,080501,118.010007,36.838965,山东省,淄博市,张店区,万达广场,,淄博,treat,1,住宿服务,080000
B0FFFRUSPK,马耀南故居,风景名胜;风景名胜;纪念馆,110204,117.904552,36.794954,山东省,淄博市,周村区,北旺村,,淄博,treat,1,旅游景点,110000
B02150Q85V,碧霞祠,风景名胜;风景名胜;寺庙道观,110205,118.117578,36.822273,山东省,淄博市,张店区,四宝山街道四宝山街道四宝山街道四宝山街道四宝山街道102乡道,,淄博,treat,1,旅游景点,110000
B021502TBE,花山坊,风景名胜;风景名胜;风景名胜,110200,118.112959,36.821252,山东省,淄博市,张店区,联通路与花山路交叉口东160米,,淄博,treat,1,旅游景点,110000
B0FFFYIWK6,临淄基督教堂,风景名胜;风景名胜;教堂,110206,118.314038,36.844829,山东省,淄博市,临淄区,国家庄村附近,,淄博,treat,1,旅游景点,110000
B021504HE0,基督教堂,风景名胜;风景名胜;教堂,110206,117.942196,36.664117,山东省,淄博市,淄川区,建设路779号,,淄博,treat,1,旅游景点,110000
B021502WJX,淄博清真寺,风景名胜;风景名胜;回教寺,110207,118.046329,36.787624,山东省,淄博市,张店区,铁南路16号(公交东站),,淄博,treat,1,旅游景点,110000
B0FFFALWFS,齐盛湖公园,风景名胜;公园广场;公园,110101,117.989284,36.841662,山东省,淄博市,张店区,中润大道,,淄博,treat,1,旅游景点,110000
B0FFHZ7RF4,天明寺,风景名胜;风景名胜;寺庙道观,110205,118.065457,36.543319,山东省,淄博市,淄川区,西河镇洪张路西50米,,淄博,treat,1,旅游景点,110000
B0FFG4R5R9,弥陀寺,风景名胜;风景名胜;寺庙道观,110205,118.162099,36.49732,山东省,淄博市,淄川区,淄中路,,淄博,treat,1,旅游景点,110000
B02150RLVJ,锦纶斋(方正尚城南区店),购物服务;专卖店;古玩字画店|风景名胜;风景名胜相关;旅游景点,061201|110000,118.295883,36.809554,山东省,淄博市,临淄区,大顺路18甲,,淄博,treat,1,旅游景点,110000
B02150QLV7,南庙,风景名胜;风景名胜;寺庙道观,110205,117.987152,36.619724,山东省,淄博市,淄川区,洪山镇马家村,,淄博,treat,1,旅游景点,110000
B02150Q8M6,文姜公园,风景名胜;公园广场;公园,110101,117.895912,36.402253,山东省,淄博市,博山区,051县道,,淄博,treat,1,旅游景点,110000
B02150Q6M4,昆仑党建文化主题广场,风景名胜;公园广场;城市广场,110105,117.913821,36.58224,山东省,淄博市,淄川区,昆仑镇,,淄博,treat,1,旅游景点,110000
B0FFIKJWGF,房镇体育公园,风景名胜;公园广场;公园|风景名胜;风景名胜;风景名胜,110101|110200,117.965537,36.86354,山东省,淄博市,张店区,美田路,,淄博,treat,1,旅游景点,110000
B0FFIYXCTA,淄博沂源唐山佛雕文化园,风景名胜;风景名胜;风景名胜,110200,118.377407,36.004463,山东省,淄博市,沂源县,东里镇南,,淄博,treat,1,旅游景点,110000
B0FFJ3WAY7,淄川天主堂,风景名胜;风景名胜;教堂,110206,118.001386,36.639336,山东省,淄博市,淄川区,淄矿北路与星火路交叉口西北460米,,淄博,treat,1,旅游景点,110000
B0FFICBBEM,南博山中村文化广场,风景名胜;公园广场;城市广场,110105,117.964417,36.35139,山东省,淄博市,博山区,907省道东50米,,淄博,treat,1,旅游景点,110000
B0FFI7ECJ1,周村人民广场-四德主题公园,风景名胜;公园广场;公园,110101,117.858127,36.799089,山东省,淄博市,周村区,丝绸路周村人民广场(东侧),,淄博,treat,1,旅游景点,110000
B0FFGLS29E,忠亲王祠,风景名胜;风景名胜;寺庙道观,110205,117.967651,36.645975,山东省,淄博市,淄川区,城里大街185号,,淄博,treat,1,旅游景点,110000
B02150RD6K,留仙谷清风寺,风景名胜;风景名胜;寺庙道观,110205,118.052826,36.603576,山东省,淄博市,淄川区,淄中路西100米,,淄博,treat,1,旅游景点,110000
B02150RCYY,原山国家森林公园-吕祖庙,风景名胜;风景名胜;寺庙道观,110205,117.83522,36.478136,山东省,淄博市,博山区,颜山公园路4号原山国家森林公园,,淄博,treat,1,旅游景点,110000
B02150R3O0,活力广场,风景名胜;公园广场;城市广场,110105,118.063957,36.867657,山东省,淄博市,张店区,张店区高新区柳泉路358号,,淄博,treat,1,旅游景点,110000
B02150QP19,世纪广场,风景名胜;公园广场;城市广场,110105,118.104867,36.821399,山东省,淄博市,张店区,宝鑫路37号,,淄博,treat,1,旅游景点,110000
B02150QMW9,葫芦山生态园,风景名胜;风景名胜相关;旅游景点,110000,117.820688,36.711222,山东省,淄博市,周村区,王村镇彭家村,,淄博,treat,1,旅游景点,110000
B021503ZTF,兰雁广场,风景名胜;公园广场;城市广场,110105,118.040105,36.804364,山东省,淄博市,张店区,商场西街137号,,淄博,treat,1,旅游景点,110000
B0FFIZ1P3C,鲁泰文苑动物园,风景名胜;公园广场;动物园,110102,117.99668,36.64233,山东省,淄博市,淄川区,文博路与松龄东路交叉口东南500米,,淄博,treat,1,旅游景点,110000
B0FFIRBVZ0,周村古商城-三星庙,风景名胜;风景名胜;寺庙道观,110205,117.840331,36.799726,山东省,淄博市,周村区,周村古商城 稠市街80号,,淄博,treat,1,旅游景点,110000
B0FFIN941F,明德山雾云洞,风景名胜;风景名胜;寺庙道观,110205,117.932145,36.417401,山东省,淄博市,博山区,002乡道,,淄博,treat,1,旅游景点,110000
B0FFIA57PD,文昌湖公园,风景名胜;公园广场;公园,110101,117.870499,36.711934,山东省,淄博市,周村区,萌水镇莲花南路,,淄博,treat,1,旅游景点,110000
B0FFI7YDNP,天鹅湖温泉国际慢城,风景名胜;公园广场;公园,110101,117.899076,37.2326,山东省,淄博市,高青县,广青路323号,,淄博,treat,1,旅游景点,110000
B0FFI7KDA1,淄川体育公园,风景名胜;公园广场;公园,110101,117.975759,36.63103,山东省,淄博市,淄川区,将军东路与鲁泰文化路交叉口西北角,,淄博,treat,1,旅游景点,110000
B0FFI7F2C6,周村人民广场,风景名胜;公园广场;城市广场|风景名胜;公园广场;公园,110105|110101,117.856114,36.799587,山东省,淄博市,周村区,[],,淄博,treat,1,旅游景点,110000
B0FFHWCJ2U,观音古寺,风景名胜;风景名胜;寺庙道观,110205,118.161694,36.365494,山东省,淄博市,博山区,池上镇韩庄村,,淄博,treat,1,旅游景点,110000
B0FFHEGSH2,牛记庵古村落,体育休闲服务;度假疗养场所;度假村|风景名胜;风景名胜;风景名胜,080401|110200,117.808905,36.579246,山东省,淄博市,淄川区,昆仑镇牛记庵,,淄博,treat,1,旅游景点,110000
B0FFH9A5GY,马桥植物园,风景名胜;公园广场;植物园,110103,117.917271,37.035436,山东省,淄博市,桓台县,红辛路,,淄博,treat,1,旅游景点,110000
B0FFH89CNX,孝妇河湿地公园,风景名胜;公园广场;公园,110101,117.966585,36.799996,山东省,淄博市,张店区,和平路,,淄博,treat,1,旅游景点,110000
B0FFGRN21B,周村古商城-大染坊,风景名胜;风景名胜相关;旅游景点,110000,117.842161,36.796194,山东省,淄博市,周村区,大街街道东门路沿街营业房-2丝绸厂,,淄博,treat,1,旅游景点,110000
B0FFGPV3FR,八宝灵山寺,风景名胜;风景名胜;寺庙道观,110205,118.125937,36.352686,山东省,淄博市,博山区,大南峪,,淄博,treat,1,旅游景点,110000
B0FFG9DVHN,齐长城遗址--风门道关,风景名胜;风景名胜;风景名胜,110200,117.76158,36.517788,山东省,淄博市,博山区,001乡道西50米,,淄博,treat,1,旅游景点,110000
B0FFG7P1FK,皇城玫瑰谷,风景名胜;风景名胜相关;旅游景点,110000,118.389217,36.851513,山东省,淄博市,临淄区,张皇路,,淄博,treat,1,旅游景点,110000
B0FFG295BU,文昌湖省级旅游度假区,风景名胜;风景名胜;风景名胜,110200,117.868352,36.692256,山东省,淄博市,周村区,[],,淄博,treat,1,旅游景点,110000
B0FFG18CTZ,沂源鲁山溶洞群景区,风景名胜;风景名胜;国家级景点,110202,118.073581,36.271841,山东省,淄博市,沂源县,南鲁山镇望峰路160号,,淄博,treat,1,旅游景点,110000
B02150S4B0,周村古商城-魁星阁古建筑群,风景名胜;风景名胜相关;旅游景点,110000,117.841905,36.795931,山东省,淄博市,周村区,周村古商城内(南侧),,淄博,treat,1,旅游景点,110000
B02150S47D,周村·锦巷·Leisure Vacation状元府(淄博周村古商城店),风景名胜;风景名胜相关;旅游景点|住宿服务;住宿服务相关;住宿服务相关,110000|100000,117.842974,36.798053,山东省,淄博市,周村区,状元街6号,,淄博,treat,1,旅游景点,110000
B02150RZ7O,齐园,风景名胜;公园广场;公园,110101,118.292227,36.807527,山东省,淄博市,临淄区,辛三路,,淄博,treat,1,旅游景点,110000
B02150RN01,618战备电台旧址,风景名胜;风景名胜;国家级景点,110202,118.001624,36.229969,山东省,淄博市,沂源县,鲁村镇峨峪村北,,淄博,treat,1,旅游景点,110000
B02150RD9V,黑铁山风景区,风景名胜;风景名胜;风景名胜,110200,118.164113,36.842767,山东省,淄博市,张店区,卫固镇太平村,,淄博,treat,1,旅游景点,110000
B02150RD4T,金陵寺,风景名胜;风景名胜;寺庙道观,110205,118.200509,36.924832,山东省,淄博市,临淄区,朱台镇南高阳村,,淄博,treat,1,旅游景点,110000
B02150RD4P,华严寺,风景名胜;风景名胜;寺庙道观,110205,117.980377,37.000746,山东省,淄博市,桓台县,田庄镇高楼小学西北侧180米,,淄博,treat,1,旅游景点,110000
B02150RCZX,汇泉桃花岛,风景名胜;风景名胜;风景名胜,110200,117.933869,36.117701,山东省,淄博市,沂源县,鲁村镇,,淄博,treat,1,旅游景点,110000
B02150QZRT,柳泉湿地公园,风景名胜;公园广场;公园|风景名胜;风景名胜;风景名胜,110101|110200,117.949355,36.633584,山东省,淄博市,淄川区,颐泽将军大道2号甲56号,,淄博,treat,1,旅游景点,110000
B02150QH1D,胜利广场,风景名胜;公园广场;城市广场,110105,117.854169,36.781992,山东省,淄博市,周村区,[],,淄博,treat,1,旅游景点,110000
B02150Q9GB,峨庄国家森林公园,风景名胜;公园广场;公园,110101,118.150576,36.503571,山东省,淄博市,淄川区,太河镇,,淄博,treat,1,旅游景点,110000
B021504PBP,沂源牛郎织女景区,风景名胜;风景名胜;国家级景点,110202,118.260858,36.109421,山东省,淄博市,沂源县,燕崖镇牛郎村,,淄博,treat,1,旅游景点,110000
B021504O8W,峨嵋山公园,风景名胜;公园广场;公园,110101,117.863174,36.486709,山东省,淄博市,博山区,峨嵋山路24号,,淄博,treat,1,旅游景点,110000
B021504NMD,留仙湖公园,风景名胜;公园广场;公园,110101,117.957398,36.6373,山东省,淄博市,淄川区,沿河街1号,,淄博,treat,1,旅游景点,110000
B021504JNV,周村古商城,风景名胜;风景名胜;国家级景点,110202,117.841013,36.798378,山东省,淄博市,周村区,新建中路19号靠近周村公安分局大街派出所,,淄博,treat,1,旅游景点,110000
B021504J9H,淦河公园,风景名胜;公园广场;公园,110101,117.829743,36.808721,山东省,淄博市,周村区,青年西路西段,,淄博,treat,1,旅游景点,110000
B021504IB8,姚家峪生态旅游度假区,体育休闲服务;度假疗养场所;度假村|风景名胜;风景名胜相关;旅游景点,080401|110000,117.825369,36.494135,山东省,淄博市,博山区,西过境路路西,,淄博,treat,1,旅游景点,110000
B021504HU2,普照寺,风景名胜;风景名胜;寺庙道观,110205,117.962441,36.639034,山东省,淄博市,淄川区,普照寺街22号,,淄博,treat,1,旅游景点,110000
B021504BB7,月牙湾,风景名胜;风景名胜;风景名胜,110200,118.386452,36.843008,山东省,淄博市,临淄区,齐陵街道齐陵街道,,淄博,treat,1,旅游景点,110000
B021504AHR,高青县千乘湖生态文化园,风景名胜;风景名胜;国家级景点,110202,117.844994,37.159321,山东省,淄博市,高青县,清河路千乘湖生态文化园,,淄博,treat,1,旅游景点,110000
B02150492H,原山国家森林公园-文姜广场,风景名胜;公园广场;城市广场,110105,117.856495,36.482443,山东省,淄博市,博山区,凤凰山路10号甲1号原山国家森林公园内(东侧),,淄博,treat,1,旅游景点,110000
B0215047U2,正觉寺,风景名胜;风景名胜;寺庙道观,110205,117.898982,36.52611,山东省,淄博市,博山区,张博公路安上村莲花山,,淄博,treat,1,旅游景点,110000
B0215046ZQ,姜太公祠,风景名胜;风景名胜;寺庙道观,110205,118.320602,36.809275,山东省,淄博市,临淄区,桓公路292号,,淄博,treat,1,旅游景点,110000
B0215046NX,淄博沂源九天洞景区,风景名胜;风景名胜;省级景点,110203,118.073101,36.271766,山东省,淄博市,沂源县,南鲁山镇政府向北3公里望峰路终点,,淄博,treat,1,旅游景点,110000
B0215042MW,千佛寺,风景名胜;风景名胜;寺庙道观,110205,117.84068,36.801278,山东省,淄博市,周村区,周村古商城内(北侧),,淄博,treat,1,旅游景点,110000
B02150429B,天香公园,风景名胜;公园广场;公园,110101,117.852515,36.813338,山东省,淄博市,周村区,青年路街道机场路595号,,淄博,treat,1,旅游景点,110000
B02150427D,萌山公园,风景名胜;公园广场;公园,110101,117.894094,36.713084,山东省,淄博市,周村区,湖区萌水镇萌水村,,淄博,treat,1,旅游景点,110000
B021503YOS,开元溶洞,风景名胜;风景名胜;省级景点,110203,118.040406,36.40641,山东省,淄博市,博山区,源泉镇东高村,,淄博,treat,1,旅游景点,110000
B021503YND,淄博市黉山风景名胜旅游区,风景名胜;风景名胜;风景名胜,110200,118.033871,36.659632,山东省,淄博市,淄川区,寨里镇东过境路,,淄博,treat,1,旅游景点,110000
B021503YLR,傅山公园,风景名胜;公园广场;公园,110101,118.143232,36.875205,山东省,淄博市,张店区,中心路与蟠龙山东路交叉口东南240米,,淄博,treat,1,旅游景点,110000
B021503Q74,原山国家森林公园,风景名胜;风景名胜;国家级景点,110202,117.836257,36.480938,山东省,淄博市,博山区,凤凰山路10号甲1号,,淄博,treat,1,旅游景点,110000
B021502TP9,火炬公园,风景名胜;公园广场;公园,110101,118.053802,36.837551,山东省,淄博市,张店区,柳泉路与中润大道交汇处西北角,,淄博,treat,1,旅游景点,110000
B0215026EJ,云明山风景区,风景名胜;风景名胜;风景名胜,110200,118.175224,36.446787,山东省,淄博市,淄川区,太河镇淄中路上端士村东首1号,,淄博,treat,1,旅游景点,110000
B0215025M9,梦泉旅游区,风景名胜;风景名胜;省级景点,110203,118.146088,36.43393,山东省,淄博市,淄川区,淄河镇幸福嵧梦泉村,,淄博,treat,1,旅游景点,110000
B021500B8A,原山国家森林公园-泰山行宫,风景名胜;风景名胜相关;旅游景点,110000,117.843209,36.482475,山东省,淄博市,博山区,颜山公园路4号原山国家森林公园(东北角),,淄博,treat,1,旅游景点,110000
B021500B87,颜文姜祠,风景名胜;风景名胜;风景名胜,110200,117.855514,36.481729,山东省,淄博市,博山区,泉水路26号,,淄博,treat,1,旅游景点,110000
B021500B85,蒲松龄纪念馆,风景名胜;风景名胜;纪念馆,110204,118.011373,36.630504,山东省,淄博市,淄川区,蒲家村71号,,淄博,treat,1,旅游景点,110000
B021500B84,淄博聊斋城景区,风景名胜;风景名胜;国家级景点,110202,118.016053,36.62869,山东省,淄博市,淄川区,洪山镇蒲家村466号,,淄博,treat,1,旅游景点,110000
B021500B76,山东文旅马踏湖旅游区,风景名胜;风景名胜;省级景点,110203,118.070416,37.078022,山东省,淄博市,桓台县,起凤镇旅游路2号,,淄博,treat,1,旅游景点,110000
B021500B72,马鞍山旅游区,风景名胜;风景名胜;风景名胜,110200,118.092432,36.47841,山东省,淄博市,淄川区,太河镇淄河,,淄博,treat,1,旅游景点,110000
B021500B6C,鲁山国家森林公园,风景名胜;风景名胜;国家级景点,110202,118.06224,36.301774,山东省,淄博市,博山区,池上镇,,淄博,treat,1,旅游景点,110000
B021500B66,白石洞旅游风景区,风景名胜;风景名胜;风景名胜,110200,117.819342,36.515991,山东省,淄博市,博山区,白石洞(西域城路西),,淄博,treat,1,旅游景点,110000
B021500B5B,王士禛纪念馆,风景名胜;风景名胜;纪念馆,110204,117.943465,36.951597,山东省,淄博市,桓台县,新城镇城南村,,淄博,treat,1,旅游景点,110000
B021500B5A,四世宫保,风景名胜;风景名胜;风景名胜,110200,117.946244,36.950355,山东省,淄博市,桓台县,王渔洋故里景区,,淄博,treat,1,旅游景点,110000
B021500B59,桓台人民公园,风景名胜;公园广场;公园,110101,118.09302,36.960254,山东省,淄博市,桓台县,中心大街115号,,淄博,treat,1,旅游景点,110000
B021500B58,博山人民公园,风景名胜;公园广场;公园,110101,117.855,36.496169,山东省,淄博市,博山区,沿河西路62号,,淄博,treat,1,旅游景点,110000
B021500B56,西山公园,风景名胜;公园广场;公园,110101,117.990818,36.634296,山东省,淄博市,淄川区,洪山镇淄矿路133号,,淄博,treat,1,旅游景点,110000
B021500B4F,张店儿童公园,风景名胜;公园广场;公园,110101,118.071556,36.801765,山东省,淄博市,张店区,共青团东路30号,,淄博,treat,1,旅游景点,110000
B0215047W7,钟楼,风景名胜;风景名胜;风景名胜,110200,117.960268,36.668146,山东省,淄博市,淄川区,建设路525号附近,,淄博,treat,1,旅游景点,110000
B0FFIWM1WH,九顶莲花山文化景区,风景名胜;风景名胜相关;旅游景点,110000,118.377396,36.004481,山东省,淄博市,沂源县,东里镇下柳沟村,,淄博,treat,1,旅游景点,110000
B0FFHCKBTK,九顶莲花山弥陀寺,风景名胜;风景名胜;风景名胜,110200,118.377441,36.004485,山东省,淄博市,沂源县,东里镇下柳沟村九顶莲花山文化景区,,淄博,treat,1,旅游景点,110000
B0FFH24EFK,栖真观,风景名胜;风景名胜;寺庙道观,110205,118.013277,36.138917,山东省,淄博市,沂源县,鲁村镇安平村,,淄博,treat,1,旅游景点,110000
B0FFJOPV78,玉龙湖湿地公园,风景名胜;公园广场;公园,110101,118.036436,36.876983,山东省,淄博市,张店区,齐新大道与北西五路交叉口西260米,,淄博,treat,1,旅游景点,110000
B0FFFPDEGC,吉祥广场,风景名胜;公园广场;城市广场,110105,117.973527,36.655065,山东省,淄博市,淄川区,吉祥路748号22-23号,,淄博,treat,1,旅游景点,110000
B0FFI2H7XY,淄博市高新区植物园,风景名胜;公园广场;植物园,110103,118.02744,36.859301,山东省,淄博市,张店区,正承小区南,,淄博,treat,1,旅游景点,110000
B0FFJ0CASR,张店侵华日军战俘集中营旧址,风景名胜;风景名胜相关;旅游景点,110000,118.058029,36.799188,山东省,淄博市,张店区,西一路86号,,淄博,treat,1,旅游景点,110000
B021500B73,二郎庙,风景名胜;风景名胜;寺庙道观,110205,118.054265,36.426773,山东省,淄博市,博山区,007县道,,淄博,treat,1,旅游景点,110000
B02150QNLW,红莲湖公园,风景名胜;公园广场;公园,110101,118.074569,36.934136,山东省,淄博市,桓台县,柳泉北路附近,,淄博,treat,1,旅游景点,110000
B0FFFC8RZN,淄博潭溪山旅游区,风景名胜;风景名胜;国家级景点,110202,118.206054,36.497949,山东省,淄博市,淄川区,太河镇峨庄乡石沟村,,淄博,treat,1,旅游景点,110000
B02150QM8Y,凤凰山公园,风景名胜;公园广场;公园,110101,117.838883,36.741488,山东省,淄博市,周村区,南郊镇周隆路160号,,淄博,treat,1,旅游景点,110000
B02150QJQ6,西天寺造像,风景名胜;风景名胜相关;旅游景点,110000,118.34305,36.856863,山东省,淄博市,临淄区,045乡道与张皇路交叉口东南340米,,淄博,treat,1,旅游景点,110000
B021504IBI,樵岭前风景区-博山溶洞,风景名胜;风景名胜;风景名胜,110200,117.827216,36.447454,山东省,淄博市,博山区,山头镇樵岭前村008乡道樵岭前风景区内(东侧),,淄博,treat,1,旅游景点,110000
B021500B50,莲池法治文化公园,风景名胜;公园广场;公园,110101,118.03423,36.823497,山东省,淄博市,张店区,华光路123号,,淄博,treat,1,旅游景点,110000
B02150QLUQ,炉神庙,风景名胜;风景名胜;寺庙道观,110205,117.858293,36.497091,山东省,淄博市,博山区,琉璃园内(东侧),,淄博,treat,1,旅游景点,110000
B02150Q5QW,周村基督教堂,风景名胜;风景名胜;教堂,110206,117.847822,36.797957,山东省,淄博市,周村区,丝市街663号,,淄博,treat,1,旅游景点,110000
B021500B8D,玉皇宫,风景名胜;风景名胜;寺庙道观,110205,117.852755,36.486698,山东省,淄博市,博山区,城西街道颜山公园路43号,,淄博,treat,1,旅游景点,110000
B0FFI81WJL,九天门,风景名胜;风景名胜相关;旅游景点,110000,118.11661,36.166308,山东省,淄博市,沂源县,山东天湖旅游文化股份有限公司西侧,,淄博,treat,1,旅游景点,110000
B02150QNV4,胜炼公园,风景名胜;公园广场;公园,110101,118.259219,36.771678,山东省,淄博市,临淄区,石槐东路与石槐中路交叉口东北460米,,淄博,treat,1,旅游景点,110000
B0FFI9A30R,潭溪山高空玻璃桥,风景名胜;风景名胜相关;旅游景点,110000,118.214525,36.499224,山东省,淄博市,淄川区,峨庄乡石沟村淄博潭溪山旅游区内(东侧),,淄博,treat,1,旅游景点,110000
B0FFHYPK0G,云水瑶风景区,风景名胜;风景名胜;风景名胜,110200,118.230763,36.367618,山东省,淄博市,沂源县,淄中路附近,,淄博,treat,1,旅游景点,110000
B0FFGAZIUS,圣佛山,风景名胜;风景名胜;风景名胜,110200,118.362109,36.190447,山东省,淄博市,沂源县,圣弗山别院餐饮休闲中心西南侧,,淄博,treat,1,旅游景点,110000
B02150QJY5,如月湖湿地公园,风景名胜;风景名胜;风景名胜,110200,117.892587,36.442721,山东省,淄博市,博山区,八陡镇石炭坞(南过境路五公里处),,淄博,treat,1,旅游景点,110000
B02150QHYD,齐长城遗址,风景名胜;风景名胜;世界遗产,110201,117.855184,36.485532,山东省,淄博市,博山区,颜山公园路4号原山国家森林公园内(东侧),,淄博,treat,1,旅游景点,110000
B021504L53,民族园,风景名胜;公园广场;公园,110101,117.846969,36.816491,山东省,淄博市,周村区,电厂路西段,,淄博,treat,1,旅游景点,110000
B021503YON,琉璃园,风景名胜;风景名胜;风景名胜,110200,117.85809,36.497154,山东省,淄博市,博山区,特色街区·西冶街,,淄博,treat,1,旅游景点,110000
B021503YO9,莲花山公园,风景名胜;公园广场;公园,110101,117.894789,36.519279,山东省,淄博市,博山区,安上村,,淄博,treat,1,旅游景点,110000
B021500B6A,泉河风景区,风景名胜;公园广场;公园|风景名胜;风景名胜;风景名胜,110101|110200,118.048141,36.410821,山东省,淄博市,博山区,源泉镇泉河村,,淄博,treat,1,旅游景点,110000
B021500B63,三台山旅游风景区,风景名胜;风景名胜;风景名胜,110200,117.87812,36.606249,山东省,淄博市,淄川区,205国道,,淄博,treat,1,旅游景点,110000
B0FFJIN1L5,天主教堂,风景名胜;风景名胜;教堂,110206,118.020124,36.78171,山东省,淄博市,张店区,复兴路与世纪路交叉口西340米,,淄博,treat,1,旅游景点,110000
B0FFI9EI7W,渔具水族馆,风景名胜;公园广场;水族馆,110104,117.915574,36.859389,山东省,淄博市,周村区,姜萌路与同济路交叉口南120米,,淄博,treat,1,旅游景点,110000
B02150RTRO,神舟堂,风景名胜;风景名胜;教堂,110206,118.04436,36.820507,山东省,淄博市,张店区,华光路89号,,淄博,treat,1,旅游景点,110000
B021500B62,石佛寺,风景名胜;风景名胜;寺庙道观,110205,117.862538,36.675462,山东省,淄博市,周村区,石佛寺(长周路东),,淄博,treat,1,旅游景点,110000
B02150RXPN,晏婴公园,风景名胜;公园广场;公园,110101,118.313557,36.819156,山东省,淄博市,临淄区,晏婴路东泰广场,,淄博,treat,1,旅游景点,110000
B0FFIK7W5K,新华公园,风景名胜;公园广场;公园,110101,118.067006,36.7957,山东省,淄博市,张店区,东二路与新村东路交叉口西南,,淄博,treat,1,旅游景点,110000
B0FFHYFYGD,张店市民公园,风景名胜;公园广场;公园,110101,118.021792,36.804554,山东省,淄博市,张店区,马尚街道张店区政府旁,,淄博,treat,1,旅游景点,110000
B0FFJ79U3X,泰山行宫,风景名胜;风景名胜相关;旅游景点,110000,118.025136,36.763194,山东省,淄博市,张店区,南苑绿洲小区孙家南苑绿洲小区二区,,淄博,treat,1,旅游景点,110000
B0FFH6KUSS,晏婴墓,风景名胜;风景名胜相关;旅游景点,110000,118.348462,36.87133,山东省,淄博市,临淄区,永顺村,,淄博,treat,1,旅游景点,110000
B0FFJSCSJF,颜神文旅·九龙峪风景区,风景名胜;风景名胜;风景名胜,110200,117.82119,36.498417,山东省,淄博市,博山区,s29滨莱高速路口南279米伊家楼2号,,淄博,treat,1,旅游景点,110000
B021504LJ4,淄博市植物园,风景名胜;公园广场;植物园,110103,118.029484,36.792359,山东省,淄博市,张店区,世纪路28号,,淄博,treat,1,旅游景点,110000
B021503ZTE,淄博中心广场,风景名胜;公园广场;城市广场,110105,118.038484,36.803235,山东省,淄博市,张店区,商场西街153号,,淄博,treat,1,旅游景点,110000
B021500B7C,临淄人民广场,风景名胜;公园广场;城市广场,110105,118.308885,36.824891,山东省,淄博市,临淄区,临淄大道702号,,淄博,treat,1,旅游景点,110000
B0FFGOLE6V,稷下文化园,风景名胜;公园广场;城市广场,110105,118.274123,36.81748,山东省,淄博市,临淄区,辛化路2838号,,淄博,treat,1,旅游景点,110000
B0FFJ51LJG,青龙山公园,风景名胜;公园广场;公园,110101,118.088849,36.826097,山东省,淄博市,张店区,纬一路,,淄博,treat,1,旅游景点,110000
B0FFHS2A2S,运粮河湿地公园,风景名胜;公园广场;公园,110101,118.307362,36.892481,山东省,淄博市,临淄区,231省道附近,,淄博,treat,1,旅游景点,110000
B0FFHIG8DR,市民广场,风景名胜;公园广场;城市广场,110105,118.017803,36.804819,山东省,淄博市,张店区,孝妇河湿地公园,,淄博,treat,1,旅游景点,110000
B0FFFHBGUJ,稷下湖(不对外开放),风景名胜;风景名胜相关;旅游景点,110000,118.003871,36.811354,山东省,淄博市,张店区,杏园路66号,,淄博,treat,1,旅游景点,110000
B02150RMC2,世纪广场,风景名胜;公园广场;城市广场,110105,117.865179,36.505887,山东省,淄博市,博山区,柳杭路与232省道交叉口北220米,,淄博,treat,1,旅游景点,110000
B02150RKET,齐山风景区,风景名胜;风景名胜;国家级景点,110202,118.199833,36.5147,山东省,淄博市,淄川区,太河乡齐山林场,,淄博,treat,1,旅游景点,110000
B02150RD8F,青年公园,风景名胜;公园广场;公园,110101,118.040537,36.760851,山东省,淄博市,张店区,南定镇西山路21号,,淄博,treat,1,旅游景点,110000
B021504106,张店天主教堂,风景名胜;风景名胜;教堂,110206,118.059974,36.789464,山东省,淄博市,张店区,杏园东路10号,,淄博,treat,1,旅游景点,110000
B0215040LT,淄博人民公园,风景名胜;公园广场;公园,110101,118.048798,36.810627,山东省,淄博市,张店区,公园街道柳泉路,,淄博,treat,1,旅游景点,110000
B021503YM7,杨寨塔,风景名胜;风景名胜;风景名胜,110200,117.992288,36.716165,山东省,淄博市,淄川区,杨萌路附近,,淄博,treat,1,旅游景点,110000
B0215025JX,蜂山公园,风景名胜;公园广场;公园,110101,118.244184,36.747659,山东省,淄博市,临淄区,胜利路8号,,淄博,treat,1,旅游景点,110000
B0FFGPO222,磁村古瓷窑址,风景名胜;风景名胜相关;旅游景点,110000,117.85256,36.618558,山东省,淄博市,淄川区,510省道与048县道交叉口西200米,,淄博,treat,1,旅游景点,110000
B021504K6J,和平文体广场,风景名胜;公园广场;城市广场,110105,117.827017,36.794373,山东省,淄博市,周村区,周村和平路,,淄博,treat,1,旅游景点,110000
B0FFHV69W2,淄博临淄栖凤湖,地名地址信息;自然地名;湖泊|风景名胜;风景名胜相关;旅游景点,190205|110000,118.211827,36.733457,山东省,淄博市,临淄区,临淄区,,淄博,treat,1,旅游景点,110000
B0FFH8D6B3,周村古商城-杨家大院,风景名胜;风景名胜相关;旅游景点,110000,117.842281,36.796719,山东省,淄博市,周村区,周村古商城(东南角),,淄博,treat,1,旅游景点,110000
B02150RTNZ,唐代古槐,风景名胜;风景名胜相关;旅游景点,110000,117.899119,36.520523,山东省,淄博市,博山区,环东路北200米,,淄博,treat,1,旅游景点,110000
B021504L5W,民法典主题公园,风景名胜;公园广场;公园,110101,117.828674,36.796596,山东省,淄博市,周村区,和平路297号,,淄博,treat,1,旅游景点,110000
B021504GWM,沂河源水景公园,风景名胜;公园广场;公园,110101,118.154262,36.190032,山东省,淄博市,沂源县,沿河西路79号,,淄博,treat,1,旅游景点,110000
B021500B65,平安殿,风景名胜;风景名胜;寺庙道观,110205,117.855097,36.542447,山东省,淄博市,博山区,平安路18号,,淄博,treat,1,旅游景点,110000
B0FFJ0S333,对松观,风景名胜;风景名胜相关;旅游景点,110000,118.177735,36.479169,山东省,淄博市,淄川区,淄中路东150米,,淄博,treat,1,旅游景点,110000
B0FFHQ59Q3,张店区房镇祠堂,风景名胜;风景名胜;寺庙道观,110205,117.950836,36.848017,山东省,淄博市,张店区,034乡道附近,,淄博,treat,1,旅游景点,110000
B02150QZS4,清真寺,风景名胜;风景名胜;回教寺,110207,117.988974,36.630483,山东省,淄博市,淄川区,淄矿路22号,,淄博,treat,1,旅游景点,110000
B02150QIT1,茂岭公园,风景名胜;公园广场;公园,110101,117.914827,36.480506,山东省,淄博市,博山区,八陡镇,,淄博,treat,1,旅游景点,110000
B0FFILJJYR,凤凰广场,风景名胜;公园广场;城市广场,110105,117.830051,36.488469,山东省,淄博市,博山区,凤凰山西路,,淄博,treat,1,旅游景点,110000
B0FFH4WS01,山水缘广场,风景名胜;公园广场;城市广场,110105,117.959894,36.632743,山东省,淄博市,淄川区,颐泽将军大道,,淄博,treat,1,旅游景点,110000
B0FFH0O1FD,天主堂,风景名胜;风景名胜;教堂,110206,118.354345,36.852005,山东省,淄博市,临淄区,张皇路附近,,淄博,treat,1,旅游景点,110000
B0FFGMLU9I,宝塔文化广场,风景名胜;公园广场;城市广场,110105,117.997516,36.713892,山东省,淄博市,淄川区,孝妇河西路与杨萌路交叉口西南120米,,淄博,treat,1,旅游景点,110000
B0FFG9GJEW,大悲庵,风景名胜;风景名胜;回教寺|风景名胜;风景名胜;寺庙道观,110207|110205,117.774087,36.631927,山东省,淄博市,淄川区,青云寺路,,淄博,treat,1,旅游景点,110000
B02150QEMN,焦裕禄广场,风景名胜;公园广场;城市广场,110105,117.862695,36.493876,山东省,淄博市,博山区,中心路,,淄博,treat,1,旅游景点,110000
B0FFGMUJW0,北岭古窑,风景名胜;风景名胜;风景名胜,110200,117.867789,36.494568,山东省,淄博市,博山区,五岭路10号,,淄博,treat,1,旅游景点,110000
B0FFHCXRLX,马桥公园,风景名胜;公园广场;公园,110101,117.917491,37.04194,山东省,淄博市,桓台县,马桥镇,,淄博,treat,1,旅游景点,110000
B0FFG5ADTF,绿荫家居水族馆,风景名胜;公园广场;水族馆,110104,117.962053,36.651295,山东省,淄博市,淄川区,菜园村,,淄博,treat,1,旅游景点,110000
B0FFHUL28K,石佛堂寺,风景名胜;风景名胜;寺庙道观,110205,118.349201,36.885109,山东省,淄博市,临淄区,齐都镇,,淄博,treat,1,旅游景点,110000
B02150RD83,四王冢,风景名胜;风景名胜;风景名胜,110200,118.376472,36.784921,山东省,淄博市,临淄区,[],,淄博,treat,1,旅游景点,110000
B02150R46O,梓橦山旅游区,风景名胜;风景名胜;省级景点,110203,118.031731,36.670277,山东省,淄博市,淄川区,双杨镇205国道淄博段梓童山车站以东35公里处的藏梓村东,,淄博,treat,1,旅游景点,110000
B0215025AR,樵岭前风景区,风景名胜;风景名胜;省级景点,110203,117.821669,36.446687,山东省,淄博市,博山区,山头街道樵岭前村,,淄博,treat,1,旅游景点,110000
B021500B5F,管仲纪念馆,风景名胜;风景名胜;纪念馆,110204,118.351952,36.793594,山东省,淄博市,临淄区,齐陵街道北山西村99号,,淄博,treat,1,旅游景点,110000
B02150R4KP,禹王山林区,风景名胜;风景名胜;风景名胜,110200,117.780704,36.482885,山东省,淄博市,博山区,域城镇岭西村,,淄博,treat,1,旅游景点,110000
B02150RD95,齐故城排水道口,风景名胜;风景名胜;风景名胜,110200,118.343869,36.890737,山东省,淄博市,临淄区,凤凰镇古侯路与045乡道交叉口北100米,,淄博,treat,1,旅游景点,110000
B0FFFOHVYV,蝴蝶峪,风景名胜;风景名胜;风景名胜,110200,117.781106,36.513231,山东省,淄博市,博山区,石门景区南4公里(黄鹿泉村村首),,淄博,treat,1,旅游景点,110000
B021500B71,五阳山景区,风景名胜;风景名胜;风景名胜,110200,117.911597,36.428971,山东省,淄博市,博山区,236省道,,淄博,treat,1,旅游景点,110000
B02150QQZC,张店西一路民国住宅楼,风景名胜;风景名胜相关;旅游景点,110000,118.058162,36.799214,山东省,淄博市,张店区,西一路86号,,淄博,treat,1,旅游景点,110000
B02150QETG,沂河源省级湿地公园,风景名胜;公园广场;公园,110101,118.150174,36.196341,山东省,淄博市,沂源县,沿河西路79号,,淄博,treat,1,旅游景点,110000
B0FFI7W0XW,基督教堂,风景名胜;风景名胜;教堂,110206,118.045575,36.962622,山东省,淄博市,桓台县,兴唐路79号附近,,淄博,treat,1,旅游景点,110000
B0FFJLMV5T,齐山风景区-齐门洞,风景名胜;风景名胜相关;旅游景点,110000,118.20025,36.510595,山东省,淄博市,淄川区,太河镇齐山风景区境内,,淄博,treat,1,旅游景点,110000
B02150RTNY,沂源县普安禅寺,风景名胜;风景名胜;寺庙道观,110205,118.126756,36.195465,山东省,淄博市,沂源县,南麻街道普安禅寺,,淄博,treat,1,旅游景点,110000
B02150Q686,齐林公园,风景名胜;公园广场;公园,110101,118.062031,36.860615,山东省,淄博市,张店区,裕民路金晶大道126号,,淄博,treat,1,旅游景点,110000
B02150413E,良乡体育运动公园,风景名胜;公园广场;公园,110101,118.073226,36.777487,山东省,淄博市,张店区,良乡小区内,,淄博,treat,1,旅游景点,110000
B02150RZNS,涌泉齐长城,风景名胜;风景名胜;风景名胜,110200,118.134415,36.429842,山东省,淄博市,淄川区,太河镇涌泉村,,淄博,treat,1,旅游景点,110000
B02150QKLF,淄博萌山湖荷花生态园,公司企业;农林牧渔基地;其它农林牧渔基地|风景名胜;风景名胜相关;旅游景点,170400|110000,117.904866,36.712974,山东省,淄博市,周村区,022乡道,,淄博,treat,1,旅游景点,110000
B02150QIW4,灵芝洞,风景名胜;风景名胜;风景名胜,110200,118.079323,36.267212,山东省,淄博市,沂源县,望峰路106号,,淄博,treat,1,旅游景点,110000
B0FFIMU7BU,晏婴公园,风景名胜;公园广场;公园,110101,118.292655,36.820218,山东省,淄博市,临淄区,晏婴路东泰广场,,淄博,treat,1,旅游景点,110000
B0FFH1CRYR,禹山湖,风景名胜;风景名胜;风景名胜,110200,117.792707,36.482443,山东省,淄博市,博山区,[],,淄博,treat,1,旅游景点,110000
B021500B88,博山红门碧霞元君行宫,风景名胜;风景名胜相关;旅游景点,110000,117.855251,36.485442,山东省,淄博市,博山区,颜山公园路4号原山国家森林公园内(东侧),,淄博,treat,1,旅游景点,110000
B02150QMAK,齐国故城城垣遗迹,风景名胜;风景名胜;省级景点,110203,118.342263,36.868849,山东省,淄博市,临淄区,045乡道西50米,,淄博,treat,1,旅游景点,110000
B0FFG9ATZ6,云台山风景区,风景名胜;风景名胜;风景名胜,110200,118.024326,36.606095,山东省,淄博市,淄川区,洪山镇,,淄博,treat,1,旅游景点,110000
B0FFI71AOK,东陈公园,风景名胜;公园广场;公园,110101,117.88029,36.791825,山东省,淄博市,周村区,西陈路与东过境路交叉口西南40米,,淄博,treat,1,旅游景点,110000
B0FFG2RTRA,齐国商城社区文化广场,风景名胜;公园广场;城市广场,110105,118.293214,36.810027,山东省,淄博市,临淄区,大顺路与齐城路交叉口西220米,,淄博,treat,1,旅游景点,110000
B0FFK26XPB,牛郎庙,风景名胜;风景名胜;风景名胜,110200,118.263788,36.103233,山东省,淄博市,沂源县,燕崖镇牛郎村沂源牛郎织女景区(东南角),,淄博,treat,1,旅游景点,110000
B0FFJFPZWV,天玑阁,风景名胜;风景名胜;风景名胜,110200,117.945775,37.186481,山东省,淄博市,高青县,潍高路,,淄博,treat,1,旅游景点,110000
B0FFH46DOZ,孔融墓,风景名胜;风景名胜相关;旅游景点,110000,118.343877,36.820927,山东省,淄博市,临淄区,齐都路与临淄大道交叉口西北60米,,淄博,treat,1,旅游景点,110000
B02150Q85U,王母台,风景名胜;风景名胜相关;旅游景点,110000,118.118181,36.823832,山东省,淄博市,张店区,尚军路花山公园,,淄博,treat,1,旅游景点,110000
B021500B6F,沂源猿人化石遗址,风景名胜;风景名胜相关;旅游景点,110000,118.132068,36.240743,山东省,淄博市,沂源县,236省道,,淄博,treat,1,旅游景点,110000
B021500B57,颜山公园,风景名胜;公园广场;公园,110101,117.849791,36.488876,山东省,淄博市,博山区,张家顶路与沿河西路交叉口西360米,,淄博,treat,1,旅游景点,110000
B0FFHHIO6X,水族世界,风景名胜;公园广场;水族馆,110104,117.961894,36.650829,山东省,淄博市,淄川区,松龄西路12-3号附近,,淄博,treat,1,旅游景点,110000
B0FFJMMF64,王母祠,风景名胜;风景名胜;寺庙道观,110205,118.003392,36.707352,山东省,淄博市,淄川区,232省道与宏发路交叉口东南460米,,淄博,treat,1,旅游景点,110000
B0FFIAJ1K1,淄博新区水系公园,风景名胜;风景名胜;风景名胜,110200,117.989777,36.820477,山东省,淄博市,张店区,心环东路,,淄博,treat,1,旅游景点,110000
B02150S46E,大清邮局邮政文史馆,风景名胜;风景名胜相关;旅游景点,110000,117.841965,36.800405,山东省,淄博市,周村区,大街街道新建中路1号周村古商城(东北角),,淄博,treat,1,旅游景点,110000
B021503YOA,太阳山植物园,风景名胜;公园广场;植物园,110103,117.892555,36.534811,山东省,淄博市,博山区,簸箕掌村,,淄博,treat,1,旅游景点,110000
B0FFJKI7I9,淄河景区,风景名胜;风景名胜相关;旅游景点,110000,118.360296,36.808726,山东省,淄博市,临淄区,临淄大道277附近,,淄博,treat,1,旅游景点,110000
